State_ab,City,Zip_Code,Lat,Lon,Mean,Median,Stdev,sum_w
AL,Chickasaw,36611,30.77145,-88.079697,38773,30506,33101,1638.260513
AL,Louisville,36048,31.708516,-85.611039,37725,19528,43789,258.0176847
AL,Columbiana,35051,33.191452,-86.615618,54606,31930,57348,926.0309998
AL,Satsuma,36572,30.874343,-88.009442,63919,52814,47707,378.1146191
AL,Dauphin Island,36528,30.250913,-88.171268,77948,67225,54270,282.3203278
AL,Cullman,35057,34.045414,-86.88267,50715,42643,35886,173.3259586
AL,East Brewton,36426,31.09144,-87.055345,33737,23610,28256,758.7713224
AL,Coosada,36020,32.544337,-86.336446,46319,40242,38941,397.0525642
AL,Eva,35621,34.326504,-86.765318,57994,39591,47235,137.4960385
AL,Sylacauga,35151,33.168097,-86.442774,54807,41712,51359,380.7282381
AL,Rainsville,35986,34.457329,-85.689447,47929,38947,44430,3621.630319
AL,Gadsden,35901,34.009563,-86.015643,42251,28811,41397,10716.13924
AL,Georgiana,36033,31.639134,-86.746762,27993,19757,27656,553.4382141
AL,Rockford,35136,33.060835,-86.052333,31229,22745,27452,528.0848847
AL,Greensboro,36744,32.700968,-87.5937,36439,21136,45043,775.2524846
AL,Guin,35563,33.944319,-87.870368,56934,39047,53934,37.26433151
AL,Hartford,36344,31.105348,-85.691225,41057,21608,45280,770.5658392
AL,Helena,35080,33.285635,-86.874488,93682,300000,55763,359.4448283
AL,Hokes Bluff,35903,33.989682,-85.862873,57202,46738,44401,1140.74819
AL,Opp,36467,31.238158,-86.325104,49699,34049,48287,77.3974208
AL,Attalla,35954,34.0372,-86.147175,51926,300000,28590,179.8272518
AL,Millport,35576,33.580891,-87.986179,44572,34725,36562,152.1953912
AL,Section,35771,34.545063,-86.09335,56029,31635,62581,65.43145682
AL,Andalusia,36420,31.24398,-86.46015,51098,43794,32431,46.1990035
AL,Lockhart,36455,31.013011,-86.350273,45465,36849,45634,129.8286383
AL,Mcintosh,36553,31.264957,-88.028369,67392,48713,54529,74.13138169
AL,Maplesville,36750,32.788282,-86.876651,43767,30427,38304,210.1906399
AL,Fairfield,35064,33.455197,-86.922633,48074,39817,37964,1376.65118
AL,Mobile,36606,30.668426,-88.100226,53330,38231,50855,51243.64837
AL,Moulton,35650,34.488302,-87.282707,42079,28180,39942,1081.054675
AL,Muscle Shoals,35661,34.743692,-87.633774,60729,49109,48170,3371.984785
AL,Newbern,36765,32.591672,-87.535614,32466,17389,31851,56.33131773
AL,Northport,35476,33.257975,-87.59647,62410,54115,47114,5311.537683
AL,Opelika,36801,32.660739,-85.37889,55199,40430,48856,7259.667898
AL,Panola,35477,32.946819,-88.262264,22603,6190,29054,9.998088877
AL,Ozark,36867,32.461669,-85.025021,86605,79218,52491,695.8472292
AL,Deatsville,36022,32.579539,-86.454318,63066,57698,41175,949.1158077
AL,Prattville,36067,32.461908,-86.457385,53597,39054,39602,495.2513173
AL,Red Bay,35582,34.436097,-88.136515,39220,29055,33077,1046.499294
AL,Andalusia,36421,31.352397,-86.544609,39218,25895,48015,224.0261514
AL,Cleveland,35049,33.992756,-86.500325,55127,44609,39231,87.19666096
AL,Shelby,35143,33.106882,-86.585403,63758,45844,53244,262.0860412
AL,Smiths Station,36877,32.534662,-85.111341,57098,45637,48651,1326.288805
AL,Phil Campbell,35581,34.39287,-87.729597,72297,300000,21067,20.99903996
AL,Sumiton,35148,33.749269,-87.046903,51907,39657,46146,690.5073125
AL,Tallassee,36078,32.532665,-85.891993,55849,50493,42845,502.5720951
AL,Mobile,36619,30.581533,-88.21278,55230,47636,45298,4174.795849
AL,Tuscaloosa,35406,33.234404,-87.5283,55815,38843,54867,21342.43715
AL,Valley,36854,32.828953,-85.169386,49554,39263,40901,2423.153275
AL,Vincent,35178,33.383145,-86.402544,0,0,0,0
AL,Camp Hill,36850,32.730078,-85.570999,71026,60438,56646,41.69719615
AL,Woodland,36280,33.375627,-85.397439,48217,33446,42907,68.06510839
AL,Wadley,36276,33.091627,-85.527029,14741,11398,10903,47.9984
AL,Aliceville,35442,33.123686,-88.159364,28347,20997,28311,1057.617393
AL,Odenville,35120,33.691576,-86.503766,242857,300000,25317,1.133106667
AL,Auburn,36830,32.607722,-85.489545,59694,38029,60946,13447.91383
AL,Bayou La Batre,36509,30.407586,-88.263271,50047,35147,43788,519.2748136
AL,Bessemer,35022,33.370789,-86.971596,41239,29150,38565,7625.528576
AL,Boligee,35443,32.7681,-88.028579,32777,12379,58584,196.0868348
AL,Brilliant,35548,34.025353,-87.769145,33353,25776,27149,334.9517462
AL,Calera,35040,33.122319,-86.745644,65576,64695,38729,2521.942894
AL,Carrollton,35447,33.261903,-88.095071,41709,27321,44007,239.6872926
AL,Moody,35004,33.5467968,-86.4306179,45862,32942,40674,1123.83961
AL,Hoover,35242,33.4073199,-86.7204009,90262,71401,66042,1559.238222
AL,Chelsea,35043,33.3567902,-86.6754096,78399,71839,54844,641.3010013
AL,Maylene,35114,33.2332362,-86.8499076,85122,75896,58979,959.142978
AL,Ohatchee,36271,33.7687621,-86.0372827,66000,54091,47663,1009.159632
AL,Talladega,35160,33.4548311,-86.0680822,38882,27264,45128,922.6311462
AL,Sylacauga,35150,33.1485144,-86.2131565,40948,31044,36118,1265.891659
AL,Dadeville,36853,32.88789,-85.6951867,48421,35722,44616,1177.677057
AL,Northport,35475,33.3231423,-87.5661153,77977,74807,59517,502.9102965
AL,Holt,35404,33.2435354,-87.4825444,37965,29413,34880,615.7445284
AL,Tuscaloosa,35401,33.2031136,-87.5527647,24931,12361,34393,484.2604787
AL,Nauvoo,35578,33.9445989,-87.4646876,40072,29226,37412,1103.88352
AL,Lanett,36863,32.8580358,-85.2066713,35951,23009,38779,1174.454588
AL,Millry,36558,31.6256633,-88.3415656,48623,40342,41443,764.841684
AL,Arley,35541,34.0964418,-87.2271905,49046,36818,42393,680.4676136
AL,Elmore,36025,32.4473511,-86.4768097,41464,35150,30951,174.3282399
AL,Marbury,36051,32.6385222,-86.5148731,59061,300000,36002,341.5219868
AL,Perdido,36562,31.1104762,-87.7868713,55216,43407,52450,291.7810769
AL,Bay Minette,36507,30.8969612,-87.7737368,36474,24377,31702,452.1590132
AL,Daphne,36526,30.6478335,-87.8437739,107603,97539,63498,939.7259125
AL,Loxley,36551,30.6114771,-87.7725676,50583,41882,37860,343.6169668
AL,Robertsdale,36567,30.5641292,-87.6870074,69996,300000,37937,178.7583046
AL,Clanton,35045,32.8695805,-86.6588881,56638,41768,48428,1636.79996
AL,Fairhope,36532,30.5408065,-87.891618,67864,52050,64026,547.2694024
AL,Foley,36535,30.3802759,-87.7703177,71445,58784,51329,211.8549534
AL,Gulf Shores,36547,30.2696285,-87.637277,65583,300000,59906,202.7281904
AL,Pensacola,32506,30.4111645,-87.4511185,57395,46769,46123,525.6204634
AL,Clayton,36016,31.6794432,-85.5577196,56947,45615,47083,215.492279
AL,Eufaula,36027,31.92041,-85.1757409,43222,26304,47072,285.4825837
AL,Brent,35034,32.9533249,-87.0043466,67555,54574,61374,173.5244742
AL,Oneonta,35121,33.8723927,-86.4590322,34855,32407,21562,501.2246477
AL,Gilbertown,36908,31.9275928,-88.3326295,53998,39956,48887,1013.526324
AL,Blountsville,35031,34.0336235,-86.6373178,47717,30660,46395,295.2199241
AL,Hayden,35079,33.9036637,-86.7813122,58684,47284,39926,512.8839036
AL,Union Springs,36089,32.0821273,-85.8274935,30765,25206,26768,298.2455171
AL,Greenville,36037,31.7968287,-86.6541421,30564,21911,23037,278.1915077
AL,Mckenzie,36456,31.575083,-86.6086952,36333,27877,29844,404.4778807
AL,Anniston,36201,33.6421021,-85.8410233,27581,15743,28241,298.1823412
AL,Anniston,36207,33.6345617,-85.7901308,55336,41259,45442,493.6837654
AL,Oxford,36203,33.6111325,-85.8764727,54371,46871,46868,251.3530992
AL,Jacksonville,36265,33.7661796,-85.7864612,46650,41809,29011,382.8876521
AL,Jackson,36545,31.3573817,-87.8407503,40352,30601,39286,386.1353965
AL,Piedmont,36272,33.8952637,-85.5983598,35282,27332,29556,214.8918525
AL,Alexandria,36250,33.7837754,-85.9002899,72487,64034,45909,566.3941522
AL,Lafayette,36862,32.8660782,-85.4616055,45966,300000,34017,352.1625576
AL,Sand Rock,35983,34.1991534,-85.7578347,57239,43170,47243,573.2144311
AL,Spring Garden,36275,34.0861716,-85.5068892,51542,300000,60348,208.3649444
AL,Jack,36346,31.5375844,-85.8984006,47550,35327,39518,518.1484343
AL,Jemison,35085,32.9910458,-86.8010803,40648,33316,32761,353.5840698
AL,Verbena,36091,32.7592425,-86.5260002,67265,46110,59481,295.7606065
AL,Butler,36904,32.0656633,-88.2128479,55952,40705,54619,162.5942132
AL,Thomasville,36784,31.7929013,-87.6425154,40451,36477,28494,195.891208
AL,Grove Hill,36451,31.6170174,-87.6979772,50714,38228,55570,370.3983285
AL,Ashland,36251,33.1785156,-85.7815679,44628,35064,33198,165.0631848
AL,Heflin,36264,33.6989979,-85.5727972,31459,25199,32837,452.8846457
AL,Kinston,36453,31.2721909,-86.1506243,46792,30746,46019,202.7933989
AL,Enterprise,36330,31.3627415,-85.8358304,88951,84211,56279,1360.078197
AL,Sheffield,35660,34.7708294,-87.6799629,51659,42586,39138,285.4936852
AL,Tuscumbia,35674,34.7403319,-87.7337767,46357,300000,26728,178.9959797
AL,Muscle Shoals,35662,34.7242107,-87.6264192,72532,65185,55384,606.0447978
AL,Leighton,35646,34.774634,-87.5053473,51460,38525,36757,475.4468867
AL,Castleberry,36432,31.3411108,-87.0387457,31633,28982,24289,409.278686
AL,Luverne,36049,31.7244285,-86.3608435,40683,28886,35812,374.5550754
AL,Baileyton,35019,34.2616429,-86.5683185,61900,65528,43897,195.6872098
AL,Vinemont,35179,34.2715006,-86.8345066,53673,39630,49847,261.8569207
AL,Cullman,35055,34.1565069,-86.8940425,63213,300000,38851,286.024105
AL,Garden City,35070,33.9980493,-86.7870516,43726,28444,38686,267.6241033
AL,Ft Rucker,36362,31.4097368,-85.7458071,68310,59974,38238,375.9741459
AL,Evergreen,36401,31.4626914,-86.9984985,34206,16878,39063,540.0098405
AL,Ozark,36360,31.4833011,-85.6497139,65625,49674,60856,187.2547026
AL,Daleville,36322,31.3021556,-85.7056542,58239,61815,49004,174.7838717
AL,Midland City,36350,31.3374977,-85.4657416,42703,33772,31328,286.3256265
AL,Selma,36703,32.5526588,-87.0352646,65458,45588,47564,195.7925473
AL,Selma,36701,32.4157042,-87.0280529,23614,15982,20480,265.8210744
AL,Orrville,36767,32.3256691,-87.2191795,30567,20489,27688,321.6892907
AL,Rainsville,36986,34.5326223,-85.8630796,47226,37458,34391,509.6531557
AL,Fyffe,35971,34.4340842,-85.9687233,41338,40569,19063,330.9922396
AL,Crossville,35962,34.2571822,-86.025488,50821,54135,34788,224.3173571
AL,Ft Payne,35967,34.3660315,-85.6964687,46422,40662,30381,396.418269
AL,Eclectic,36024,32.6328834,-86.0345965,51818,50579,30368,368.4510333
AL,Wetumpka,36092,32.5201384,-86.1722101,81059,49903,70277,353.6571747
AL,Millbrook,36054,32.4977055,-86.3883595,57221,48383,41222,1103.55193
AL,Atmore,36504,31.0717073,-87.4897027,31072,23243,22228,341.1506385
AL,Highland Home,36041,31.949642,-86.3651124,51077,47797,40234,442.9118942
AL,Gadsden,35904,34.0003469,-86.0427603,32898,19505,32387,142.7611271
AL,Rainbow City,35906,33.9640619,-86.041835,50735,39380,40435,556.2117569
AL,Glencoe,35905,33.918413,-85.9183325,55639,300000,47971,624.0137358
AL,Fayette,35555,33.7012455,-87.8909439,40956,28972,44086,594.3064314
AL,Berry,35546,33.6476543,-87.6143541,54116,32380,54325,240.7529871
AL,Russellville,35653,34.5125993,-87.7533372,78787,48388,70841,211.6603107
AL,Vina,35593,34.4392881,-88.0399565,37300,300000,28404,215.2987919
AL,Samson,36477,31.0847817,-86.0861751,37651,27315,36312,274.2860615
AL,Slocomb,36375,31.0860719,-85.5280322,53395,42052,42981,317.9186427
AL,Fort Gaines,39851,31.6127173,-85.1367411,47014,41328,37305,312.1232037
AL,Newton,36352,31.2347868,-85.5932271,69416,53258,59746,448.5422627
AL,Dothan,36303,31.2531951,-85.4134185,58553,45033,42907,401.4213232
AL,Dothan,36301,31.2200822,-85.4193412,57312,45442,44993,427.5532598
AL,Webb,36376,31.268835,-85.2759901,49175,37902,46107,358.1837788
AL,Ashford,36312,31.1644974,-85.24685,54235,42227,43566,294.7867944
AL,Higdon,35979,34.8513417,-85.7000137,77322,45128,78600,403.5444994
AL,Stevenson,35772,34.8863961,-85.9296764,31235,21391,27591,336.6141727
AL,Scottsboro,35768,34.7615314,-86.0476196,50287,42093,36400,415.2827134
AL,Birmingham,35212,33.5428209,-86.752434,38145,28550,35605,218.3195664
AL,Birmingham,35214,33.5423337,-86.8765161,18832,16684,11537,88.33146667
AL,Birmingham,35204,33.5261497,-86.8351469,29489,29052,15838,230.3303555
AL,Birmingham,35202,33.5260747,-86.7830317,25675,12611,26789,242.2482416
AL,Birmingham,35218,33.5059585,-86.8745531,68538,43322,63552,141.8603456
AL,Birmingham,35208,33.4847637,-86.8981396,34319,30412,30305,212.4532229
AL,Birmingham,35211,33.4859451,-86.8696926,30472,14309,46679,229.4506292
AL,Birmingham,35222,33.5108808,-86.7744712,51831,34771,48141,408.8145886
AL,Birmingham,35205,33.4866689,-86.8173266,28327,23929,18744,290.2571993
AL,Birmingham,35213,33.5206824,-86.7260226,46565,37262,45317,614.1621046
AL,Homewood,35209,33.4775177,-86.8149403,28720,26633,21802,439.4187826
AL,Birmingham,35215,33.6222102,-86.6790265,45016,46009,26218,174.0246755
AL,Hueytown,35023,33.4525316,-87.0036566,52337,37992,49456,234.1529568
AL,Bessemer,35020,33.4009536,-86.9632652,47506,46585,32547,137.3623734
AL,Silverhill,36576,30.5345606,-87.7548736,53701,44265,42398,2036.528282
AL,Tarrant,35217,33.5796117,-86.7705036,18813,17037,13371,135.3254667
AL,Trussville,35173,33.6062979,-86.5848428,70449,63764,60898,164.2842864
AL,Birmingham,35220,33.6691522,-86.6511913,68096,66689,38318,325.5500718
AL,Kimberly,35091,33.7826093,-86.7857118,80998,70230,58272,345.7161677
AL,Mount Olive,35117,33.6819146,-86.9203958,74951,65918,49663,478.005006
AL,Gardendale,35071,33.6758356,-86.7966575,51319,42982,33344,495.7749046
AL,Graysville,35073,33.6350049,-86.9946308,54763,47866,30405,358.6528705
AL,Pleasant Grove,35127,33.4820282,-86.9862506,90511,73076,57912,336.8369051
AL,Adamsville,35005,33.5764455,-86.9673879,53383,47460,34172,362.3226205
AL,Birmingham,35206,33.5657458,-86.6703475,40281,24797,43647,388.2573215
AL,Vestavia Hills,35243,33.4582894,-86.7384274,95153,85431,61817,243.9484253
AL,Vestavia Hills,35216,33.4205046,-86.7859249,79077,39607,80856,399.7885504
AL,Birmingham,35221,33.4480924,-86.8892598,31871,21950,27401,100.1948213
AL,Mccalla,35111,33.2874081,-87.0030024,90324,88210,53865,651.0513084
AL,Prattville,36066,32.449186,-86.3730508,54523,41056,42264,1006.302217
AL,Hoover,35226,33.4013174,-86.8279736,128915,300000,84788,203.2241924
AL,Vernon,35592,33.766138,-88.0979273,48082,14259,58691,154.5205186
AL,Florence,35630,34.8103953,-87.6709633,28404,25315,18845,198.9589663
AL,Florence,35633,34.9480952,-87.7848039,58520,53758,32706,398.0816041
AL,Florence,35634,34.9295054,-87.63545,65375,49876,45702,421.3534649
AL,Killen,35645,34.8504713,-87.4793577,85950,62159,60426,345.011829
AL,Rogersville,35652,34.8122679,-87.3043693,53050,39930,53937,438.0785686
AL,Town Creek,35672,34.5666247,-87.418451,49453,30636,36144,251.9273348
AL,Trinity,35673,34.57105,-87.2129882,50558,35481,47100,348.7475269
AL,Mt Hope,35651,34.4039525,-87.4562458,49474,34122,46748,289.5220491
AL,Salem,36874,32.5985333,-85.1564072,56743,51524,41271,689.8308291
AL,Athens,35613,34.8681621,-86.8659585,84102,78280,48448,192.2215796
AL,Elkmont,35620,34.9326041,-86.9769708,52624,47441,40626,264.1201373
AL,Athens,35611,34.8025463,-86.9899793,43849,30742,37222,583.2143143
AL,Madison,35758,34.6474493,-86.8534466,101327,85287,71138,750.5195825
AL,Fort Deposit,36032,32.0180975,-86.6009099,63560,52781,51846,111.1607508
AL,Tuskegee Institute,36088,32.4628483,-85.7815478,50328,36023,42007,365.5757267
AL,Shorter,36075,32.3575498,-85.8947986,43995,35431,36578,315.9842836
AL,Huntsville,35810,34.7832877,-86.5893471,47407,33659,47264,349.989237
AL,Huntsville,35811,34.7422454,-86.5731181,53441,30532,51596,268.6863725
AL,Huntsville,35806,34.7227438,-86.6787178,49178,42703,35945,998.1001425
AL,Huntsville,35801,34.7351055,-86.5436849,93252,88860,53694,160.6224391
AL,Huntsville,35816,34.7175673,-86.6067012,23273,20863,16217,490.4837608
AL,Huntsville,35805,34.6875967,-86.6143778,37494,22507,45377,459.0727038
AL,Huntsville,35502,34.6915398,-86.5750836,77007,300000,46110,212.5227513
AL,Huntsville,35803,34.6050882,-86.5713234,79876,75064,48133,741.4440946
AL,New Market,35761,34.917897,-86.3494794,64802,63617,40696,387.4433471
AL,Harvest,35749,34.7912574,-86.7652283,80729,69225,55309,396.5081168
AL,Owens Cross Roads,35763,34.5605701,-86.4793214,65716,49914,49851,662.0729416
AL,Linden,36748,32.2755299,-87.8084087,32346,20988,33541,170.3279928
AL,Dixons Mills,36736,32.0620795,-87.7277351,48416,30152,50464,293.5516591
AL,Hamilton,35570,34.1982117,-87.949109,50049,32935,57865,346.2553643
AL,Grant,35747,34.5246512,-86.2046333,55987,38909,44664,463.3839041
AL,Union Grove,35175,34.4178011,-86.463898,62677,51925,44841,230.4232026
AL,Arab,35016,34.3314599,-86.4419583,58478,300000,38954,286.4929449
AL,Guntersville,35976,34.3505036,-86.2555798,55796,36870,49992,173.9928369
AL,Albertville,35951,34.2684564,-86.1499051,61634,300000,46009,254.6280173
AL,Albertville,35950,34.2558623,-86.2776418,32765,20717,29509,288.4854653
AL,Eutaw,35462,32.9585581,-88.0510053,30928,20746,31024,433.1127876
AL,Boaz,35957,34.211084,-86.1353109,77080,60413,61358,162.9248121
AL,Mobile,36617,30.711631,-88.0763917,23700,16804,25449,337.3094266
AL,Mobile,36604,30.6779766,-88.060697,46053,32056,45729,180.8902691
AL,Mobile,36605,30.668198,-88.0769678,36931,34077,25961,177.8232053
AL,Mobile,36693,30.6453523,-88.1427778,57689,54763,42667,323.4529665
AL,Abbeville,36310,31.564689,-85.2591239,40518,25216,39126,861.9988868
AL,Mobile,36609,30.6610364,-88.1416111,35468,14533,41837,570.5563583
AL,Mobile,36618,30.7140322,-88.1460227,49698,43324,43669,814.5363486
AL,Mobile,36608,30.6858694,-88.1588421,108483,300000,78388,254.1584313
AL,Orange Beach,36561,30.3005856,-87.5417985,86000,66868,64338,870.7881814
AL,Whistler,36613,30.7503663,-88.1166709,24218,16243,23567,299.3390932
AL,Saraland,36571,30.8245364,-88.0784836,43803,300000,28268,240.0613463
AL,Mount Vernon,36560,31.0707011,-88.0654398,48595,41530,38304,312.8861076
AL,Wilmer,36587,30.8819066,-88.2158005,58182,48215,45160,394.6197301
AL,Semmes,36575,30.7536706,-88.2468888,66912,55680,49569,539.1669383
AL,Mobile,36695,30.6628949,-88.213545,98744,92467,69504,616.8640959
AL,Grand Bay,36541,30.5565858,-88.3414467,35313,25328,25644,466.7845561
AL,Irvington,36544,30.5154023,-88.2381941,51099,39571,34541,279.7247622
AL,Monroeville,36461,31.5314913,-87.468258,65025,48748,51291,263.6920072
AL,Uriah,36480,31.3250054,-87.5991274,33553,22348,28976,314.0610535
AL,Montgomery,36107,32.3972125,-86.2846517,32307,33114,22159,219.1585743
AL,Montgmomery,36109,32.3635327,-86.308144,52473,51602,39175,163.7577937
AL,Montgomery,36108,32.3613688,-86.3289447,14023,11494,10200,376.8198166
AL,Montgomery,36106,32.3612257,-86.2834307,51585,39275,43379,302.1230365
AL,Montgomery,36111,32.3408795,-86.271527,43562,31912,41835,438.815694
AL,Montgomery,36105,32.3356125,-86.3078025,33530,29294,19200,150.5639592
AL,Princeton,35766,34.8787834,-86.2279366,45068,36873,39979,564.8473636
AL,Montgomery,36116,32.3061941,-86.2681672,49593,54777,24162,190.8903164
AL,Montgomery,36110,32.4484229,-86.2496859,69004,300000,41886,71.69654575
AL,Montgomery,36117,32.353685,-86.16183,135664,125792,75085,353.8357316
AL,Pike Road,36064,32.3507685,-86.0979514,99568,99257,51364,459.6592632
AL,Hope Hull,36043,32.198998,-86.3443832,48871,21249,51652,225.086628
AL,Decatur,35601,34.5712507,-86.9706149,65126,49578,55681,376.9475547
AL,Decatur,35603,34.5167777,-86.9711349,50662,41789,38782,270.7571858
AL,Hartselle,35640,34.4937594,-86.9171854,78301,57511,63529,481.5452964
AL,Somerville,35670,34.4805794,-86.7691975,45167,41084,30061,623.8500895
AL,Marion,36756,32.7209723,-87.3956331,47317,300000,32269,221.6618975
AL,Gordo,35466,33.3973636,-87.8929221,52298,29581,54192,344.4062452
AL,Troy,36081,31.8646421,-86.103939,55440,39745,48155,352.7228625
AL,Wedowee,36278,33.4264515,-85.5226826,44124,40935,29087,401.1802206
AL,Roanoke,36274,33.2143355,-85.3592685,56777,49691,42143,374.9822761
AL,Phenix City,36870,32.4815891,-85.0367586,47470,34531,41869,624.1994449
AL,Phenix City,36868,32.436776,-85.0748664,30365,24661,29060,330.6470399
AL,Pell City,35128,33.5644016,-86.2404965,65548,54496,51644,891.026384
AL,Ashville,35953,33.8613957,-86.1939665,55128,44569,47377,302.5141411
AL,Pelham,35124,33.3206714,-86.7920551,61447,300000,33919,551.2759431
AL,Alabaster,35007,33.2535295,-86.8084054,47515,38790,35105,132.2292147
AL,Montevallo,35115,33.1051532,-86.8316133,67471,61618,58096,324.7065011
AL,Wilsonville,35186,33.2789886,-86.500775,67015,54838,56605,522.1379374
AL,Childersburg,35044,33.2597282,-86.3714709,20842,13928,18610,227.7970519
AL,Alexander City,35010,32.9486832,-85.9841238,40286,31306,39643,461.2890428
AL,Buhl,35446,33.2005768,-87.7377348,51913,45486,32933,198.7602715
AL,Brookwood,35444,33.3241425,-87.3313594,54986,43725,44263,601.6783133
AL,Cottondale,35453,33.1420294,-87.3825437,58765,51483,35724,419.0446436
AL,Birmingham,35235,33.596713,-86.6763136,53410,44414,41526,1451.54413
AL,Tuscaloosa,35405,33.1932756,-87.5832845,31061,24484,31856,339.6137688
AL,Jasper,35503,33.8786756,-87.3033145,69796,54429,49212,327.1825658
AL,Jasper,35504,33.8698205,-87.18725,48437,35721,39976,467.9554644
AL,Oakman,35579,33.666598,-87.3615093,49334,32579,42545,366.81512
AL,Cordova,35550,33.7269845,-87.1886153,51500,46017,40239,196.4252986
AL,Sipsey,35584,33.8481176,-87.0365448,45265,31524,44482,315.692253
AL,Leroy,36548,31.4174426,-88.0504262,45381,28999,34110,228.0600445
AL,Camden,36726,32.012374,-87.2921068,28710,18681,35235,623.4972583
AL,Pine Apple,36768,31.8936393,-87.1386589,31636,23205,25782,252.2529193
AL,Double Springs,35553,34.1268793,-87.3831356,39763,36936,22304,233.2617125
AL,Haleyville,35565,34.1936265,-87.5492688,36736,20436,42108,168.2563661
AL,Leeds,35094,33.5565279,-86.5621484,42947,32289,42160,558.9018911
AL,Irondale,35210,33.5445586,-86.6466397,62219,44282,57897,872.3655141
AL,Midfield,35228,33.4412981,-86.9424457,30586,27480,24560,1077.255591
AL,Opelika,36804,32.4970769,-85.4025028,55067,39086,47067,986.2200586
AL,Hayneville,36040,32.0922981,-86.7776904,26622,17354,27609,592.1728401
AL,Tuskegee,36083,32.426005,-85.6917046,36412,28544,32135,473.6703042
AL,Remlap,35133,33.8405764,-86.6350183,54667,46471,36483,2028.184293
AL,Huntsville,35802,34.6536811,-86.5262716,94067,80758,59507,558.6366095
AL,Winfield,35594,33.9577593,-87.7518284,56133,38275,54098,1633.505762
AL,Mobile,36603,30.6993359,-88.0591706,22203,15085,19617,460.3414244
AL,Mobile,36607,30.6950269,-88.1140906,28217,20142,24349,740.7289713
AL,Prichard,36610,30.7432485,-88.081799,25820,19718,25437,497.7129785
AL,Ramer,36069,32.0637351,-86.0722109,46816,32820,39885,469.146841
AL,Phenix City,36869,32.4323882,-85.0346206,39045,30117,32894,2329.721995
AK,Alakanuk,99554,62.71116,-164.644712,40008,33347,32543,125.2962561
AK,Anderson,99744,64.308281,-149.163187,93374,300000,43837,26.53114411
AK,Barrow,99723,71.2535,-156.800072,94285,78124,70054,614.4649339
AK,Buckland,99727,65.975886,-161.138732,63175,59795,43206,68.76313942
AK,Chevak,99563,61.531066,-165.597199,51011,41718,37096,144.5942907
AK,Chuathbaluk,99557,61.575539,-159.24707,48313,44853,38154,21.7988164
AK,Copper Center,99573,61.984549,-145.354343,57085,38571,51848,70.66270037
AK,Dillingham,99576,59.060472,-158.532223,79728,62878,60850,391.309229
AK,Eielson Afb,99702,64.6733,-147.059464,68267,56650,41914,452.0460154
AK,False Pass,99583,54.872441,-163.334268,71796,300000,48301,11.59953597
AK,Homer,99603,59.894505,-151.007044,76885,59124,54835,67.8296125
AK,Fairbanks,99709,64.951999,-147.970602,97802,300000,65155,580.2908623
AK,Healy,99743,63.959632,-148.970842,95667,91135,57327,166.8191166
AK,Hughes,99745,66.044722,-154.237175,47031,33763,37726,12.06633599
AK,Kaktovik,99747,70.121285,-143.627752,62545,45810,43599,31.1989244
AK,Kiana,99749,66.971322,-160.437625,58463,41209,52139,69.99660614
AK,Kodiak,99615,57.792391,-152.404536,74363,60544,56650,1094.918618
AK,Kwethluk,99621,60.793216,-161.43139,55482,44147,43722,114.530263
AK,Ketchikan,99901,55.606676,-131.639976,0,0,0,0
AK,Mekoryuk,99630,60.370781,-166.266749,43471,24491,37909,49.29886862
AK,Haines,99827,59.151183,-135.356493,101864,300000,35736,24.39769589
AK,Allakaket,99720,66.538603,-152.621292,33847,27223,21247,14.53283465
AK,Noatak,99761,67.589497,-163.010332,65682,51784,49294,54.99796057
AK,Sheldon Point,99666,62.506535,-164.900384,58004,300000,45624,27.69938996
AK,Petersburg,99833,56.754283,-132.873808,79191,66964,59802,604.9999905
AK,Anchorage,99501,61.355597,-150.16935,77110,84804,54957,37.79753595
AK,Port Protection,99950,56.331881,-133.60642,39794,26943,55547,38.26361333
AK,St. George,99591,56.592794,-169.624378,67102,300000,41868,11.79961198
AK,Selawik,99770,66.590751,-160.001206,55786,43243,40619,108.0289107
AK,Skagway,99840,59.46436,-135.275151,81352,69886,49197,174.6890738
AK,Stevens Village,99774,66.023707,-149.080314,20652,17126,19643,7.332888886
AK,Tanana,99777,65.184555,-152.054643,51237,45813,35996,71.26401588
AK,Glennallen,99588,62.068635,-146.123116,0,0,0,0
AK,Unalakleet,99684,63.895578,-160.798136,73951,64415,53933,123.0609662
AK,Delta Junction,99737,64.152838,-145.906385,242857,300000,25317,0.866493333
AK,Egegik,99579,58.2050652,-156.7051884,62733,50708,52096,301.7860472
AK,Wasilla,99687,61.5191219,-149.6716836,84692,82973,51487,937.7795344
AK,Wasilla,99654,61.5861668,-149.3235509,95014,86266,63620,732.6474422
AK,Tok,99780,63.6472192,-142.8271144,54967,45144,46848,478.9414298
AK,Takotna,99675,62.8600955,-157.0581667,53751,40060,45019,227.120571
AK,Anchorage,99508,61.2167015,-149.7927444,64869,53765,47295,1375.814526
AK,Chugiak,99567,61.3488245,-149.3997957,133300,300000,60207,72.76073984
AK,Eagle River,99577,61.3098218,-149.5060219,109312,105321,65670,160.2236655
AK,Anchorage,99504,61.2170818,-149.7672141,62940,54003,49175,313.519324
AK,Anchorage,99517,61.2011597,-149.9490164,128395,300000,72292,169.122132
AK,Anchorage,99507,61.1738815,-149.848285,89946,83403,43459,126.3854664
AK,Anchorage,99503,61.1839061,-149.8805455,71733,59794,60241,145.5270906
AK,Anchorage,99502,61.1648107,-150.1778033,115266,115283,81014,202.681254
AK,Anchorage,99518,61.1593799,-149.8999659,86400,84689,40302,191.5858005
AK,Anchorage,99515,61.122781,-149.9633763,92426,300000,47964,155.6572533
AK,Anchorage,99516,61.1015721,-149.8226304,144635,138010,79563,131.6483398
AK,Girdwood,99587,60.9724621,-149.0849841,94928,300000,65593,100.2272054
AK,Bethel,99559,60.8141554,-161.8508097,90822,72540,71288,125.127534
AK,Fairbanks,99701,64.8278726,-147.7246662,69802,45653,59865,223.6232476
AK,North Pole,99705,64.7752542,-147.2484609,98668,82163,53448,352.674202
AK,Hoonah,99829,58.0735321,-135.513003,65020,54682,50103,198.691827
AK,Juneau,99801,58.3972,-134.5719857,92293,78817,74866,242.8802479
AK,Moose Pass,99631,60.6153549,-149.3727833,89805,75180,67992,196.5877332
AK,Kenai,99611,60.5838565,-151.3261799,66103,60259,51609,227.9226892
AK,Nikolaevsk,99556,59.8999551,-151.5703879,56071,42495,48452,410.5196364
AK,Larsen Bay,99624,57.5020153,-153.5635123,84545,80106,44616,118.2557798
AK,Saint Mary's,99658,62.2830603,-163.1909034,49429,40341,38499,321.4214562
AK,Palmer,99645,61.7170925,-149.1964285,89437,79780,57917,351.3457638
AK,Nome,99762,64.6079069,-165.453872,96042,86030,64223,114.4936215
AK,Metlakatla,99926,55.138352,-131.4704235,69964,48663,58581,173.8266189
AK,Sitka,99835,57.0451454,-135.3522511,80041,59519,65235,134.4930459
AK,Tatitlek,99677,60.6553471,-147.4091896,98618,87924,73901,155.9251971
AK,Huslia,99746,65.5705181,-155.6736579,40950,29945,34933,174.0287918
AK,Sterling,99672,60.2648699,-150.6105623,81749,70749,59378,1187.916269
AZ,Sells,85634,31.902547,-111.780387,58579,11622,79050,16.89862
AZ,Eloy,85131,32.750787,-111.670454,51765,43020,38386,2371.638295
AZ,Littlefield,86432,36.907098,-113.936313,56286,45147,39008,387.1852275
AZ,Bowie,85605,32.324831,-109.484454,35045,32050,24950,115.9938888
AZ,Tuba City,86045,35.853193,-111.428585,41489,34601,35089,222.0226247
AZ,Tucson,85739,32.484902,-110.899633,61934,50113,48909,1720.196113
AZ,Chinle,86503,36.491359,-110.049912,27046,16974,35416,158.9900164
AZ,Kingman,86401,35.220358,-114.0723,104815,300000,77396,15.26573151
AZ,Globe,85501,33.430941,-110.746483,112500,300000,9129,1.799711988
AZ,Yuma,85364,32.709354,-114.678223,41087,39081,20446,286.4886894
AZ,Polacca,86042,35.831663,-110.368892,39442,24081,37496,310.4160831
AZ,Flagstaff,86001,35.255416,-111.725274,122937,112343,77704,115.1901038
AZ,Gilbert,85295,33.310345,-111.743121,94418,84020,59877,30298.76837
AZ,Dolan Springs,86441,36.004418,-113.804103,0,0,0,0
AZ,Winkelman,85292,32.994887,-110.779872,39634,38040,26441,176.0625759
AZ,Holbrook,86025,35.40925,-110.114439,34976,29443,26478,46.99813998
AZ,Kayenta,86033,36.717169,-110.260459,40895,30296,37669,872.0433312
AZ,Kykotsmovi,86039,35.810245,-110.656849,38972,33678,38997,200.7583978
AZ,Mohave Valley,86440,34.944901,-114.590643,49684,66140,37623,5.1325831
AZ,Temp,85282,31.362463,-110.933538,41648,27728,42696,4626.239237
AZ,Payson,85541,34.180335,-111.343012,53625,300000,30475,46.86595907
AZ,Payson,85547,34.243893,-111.31884,52431,43324,39968,4512.761163
AZ,Pima,85543,32.88156,-109.843764,55575,46917,43979,492.5137699
AZ,Douglas,85608,31.360894,-109.566052,23530,16730,19264,559.6088863
AZ,Somerton,85350,32.594385,-114.655084,25662,23397,16677,145.1611832
AZ,Tonto Basin,85553,33.657393,-111.127051,39704,300000,19480,17.99973332
AZ,Green Valley,85614,31.932739,-110.96536,77054,68043,46382,4133.453182
AZ,San Manuel,85631,32.60603,-110.647113,51403,43469,34231,878.4652135
AZ,Second Mesa,86043,35.851387,-110.49799,38280,31960,33786,218.3228064
AZ,Sierra Vista,85635,31.56541,-110.314508,69646,58812,53035,9219.334449
AZ,Eagar,85925,34.171921,-109.306892,45103,30067,45297,487.6458507
AZ,Surprise,85374,33.671383,-112.357187,55736,44609,43301,9755.448109
AZ,Roll,85347,32.700435,-113.961785,48130,32498,43416,200.2629463
AZ,Winslow,86047,35.430955,-110.84315,30660,21095,30296,67.59633284
AZ,Superior,85273,33.347668,-110.999724,72207,75337,45449,29.53019053
AZ,Page,86040,35.954964,-112.120196,54968,37010,43508,94.09733194
AZ,Cottonwood,86326,34.711987,-111.993997,56440,45415,47395,3041.415146
AZ,Wellton,85356,32.623189,-114.145234,38080,300000,22076,99.03202012
AZ,Ajo,85321,32.258973,-112.730634,56385,28392,61535,36.3296466
AZ,Yarnell,85362,34.228248,-112.763062,36012,27616,29117,257.0917827
AZ,Gilbert,85298,33.2367275,-111.7386475,119002,115886,63446,1039.04075
AZ,Queen Creek,85242,33.2416507,-111.656567,130704,120267,78849,340.438997
AZ,Fountain Hills,85268,33.6461625,-111.6598954,50747,44904,41945,195.4893284
AZ,Morenci,85540,32.9929864,-109.3323888,76501,71850,40733,522.2298489
AZ,Bullhead City,86442,35.1099928,-114.5845892,40865,34773,32335,1405.106964
AZ,Bullhead City,86439,35.0150255,-114.5844264,55714,41559,48563,935.8720164
AZ,Lake Havasu City,86406,34.4818248,-114.2795315,60355,47061,37967,1703.113158
AZ,Pinon,86510,36.291957,-110.2982373,30932,17769,32581,254.5521178
AZ,Shonto,86054,36.6840509,-110.6114408,40332,26019,40116,471.303665
AZ,Lakeside,85929,34.1236048,-109.9520323,66618,59716,52953,708.7573466
AZ,Show Low,85901,34.2725505,-109.9612285,46321,33531,43717,1229.182004
AZ,Tucson,85701,32.212867,-110.9771682,50620,39574,44800,250.0542329
AZ,Tucson,85716,32.2492877,-110.9209011,42399,28401,43288,1986.126532
AZ,Ehrenberg,85334,33.2825883,-114.4150358,0,0,0,0
AZ,Tucson,85713,32.1877205,-110.9946412,36960,32166,28408,1254.03278
AZ,Tucson,85711,32.1995907,-110.8622294,41993,35025,27251,763.5365137
AZ,Tucson,85706,32.1413278,-110.9855152,42669,33686,34282,643.1437853
AZ,Tucson,85715,32.2569005,-110.8325423,65342,52748,52286,1172.741415
AZ,Tucson,85748,32.2135906,-110.7812274,83575,73008,51092,720.2887582
AZ,Tucson,85710,32.2840302,-110.781441,111983,96439,68589,199.9806452
AZ,Vail,85641,32.0974037,-110.7770346,85403,74637,49021,414.5028431
AZ,Sun City,85373,33.6751574,-112.3386479,52042,44224,35620,1199.165301
AZ,Green Valley,85622,31.7740178,-110.9544319,81394,74925,52594,167.2913589
AZ,Sahuarita,85629,31.9837468,-110.9797993,85037,74059,48336,1344.176218
AZ,Tucson,85745,32.2430537,-111.0296803,78314,73148,45564,628.4322349
AZ,Tucson,85743,32.3480444,-111.087263,69154,68188,34745,503.8048305
AZ,Tucson,85705,32.2866043,-110.9671486,31177,19089,38325,1214.739947
AZ,Tucson,85704,32.3035958,-110.9870329,61881,56317,42184,811.5874642
AZ,St Johns,85936,34.6970843,-109.5067714,47256,37626,37955,1306.585072
AZ,Tucson,85755,32.4623892,-110.9936469,117775,108682,69734,621.2521606
AZ,Tucson,85718,32.2915746,-110.9081823,103565,78185,85555,706.7638289
AZ,Surprise,85387,33.6762281,-112.4163657,77691,63984,54414,424.7817808
AZ,Tucson,85750,32.2898394,-110.8482194,102169,78342,76414,515.0382267
AZ,Florence,85132,33.1544205,-111.5390565,61313,54360,36434,787.8971004
AZ,Apache Junction,85220,33.4113667,-111.5637657,38860,32748,32374,1356.743302
AZ,Oracle,85623,32.5506259,-110.8592663,80766,72414,52480,1106.669261
AZ,Casa Grande,85222,32.9309254,-111.7740229,55664,48531,40420,1653.592992
AZ,Mesa,85204,33.0553653,-112.0192483,79505,68778,48156,1126.104486
AZ,Picacho,85241,32.593809,-111.5851591,54716,46878,35697,1061.794303
AZ,Nogales,85621,31.4430891,-110.8696338,59894,51629,43441,1889.117663
AZ,Buckeye,85322,33.5484373,-112.6462541,84867,73437,56036,943.6758614
AZ,Prescott,86305,34.6268166,-112.4437036,65618,44963,61616,1477.817747
AZ,Prescott Valley,86312,34.5863785,-112.2822925,42560,35026,31515,1327.62953
AZ,Bagdad,86321,34.5733844,-113.1438803,86089,76057,49278,329.610438
AZ,Sedona,86351,34.7817127,-111.732393,75600,64754,55414,716.135404
AZ,Yuma,85366,32.67363,-114.6112962,50898,38166,43455,1547.690965
AZ,San Luis,85349,32.4924714,-114.7770437,39969,28252,30676,927.2393718
AZ,Dateland,85333,32.242892,-113.5327972,0,0,0,0
AZ,El Mirage,85335,33.6196477,-112.3144574,61099,53380,39726,416.1480619
AZ,Fort Defiance,86504,35.9506832,-109.1461416,32392,19821,37773,209.1160461
AZ,Ganado,86505,35.6217526,-109.3752943,26791,15983,27873,123.0906784
AZ,Benson,85602,31.9582989,-110.3045946,48145,43357,27442,364.2579012
AZ,Pomerene,85627,32.200019,-110.2836792,54157,44767,48425,304.2822346
AZ,Tucson,85712,31.3644435,-109.4911125,23169,16703,21503,238.3154221
AZ,Douglas,85607,31.3389448,-109.5503177,32972,27002,23007,150.2288103
AZ,Litchfield Park,85340,33.4834524,-112.3250332,74173,57086,57721,1190.315399
AZ,Hereford,85615,31.4646753,-110.0397849,49029,36335,41353,256.4928493
AZ,Ft Huachuca,85670,31.5071568,-110.3621165,0,0,0,0
AZ,Sierra Vista,85650,31.4788388,-110.2729133,134124,300000,71109,160.5202917
AZ,Flagstaff,86004,35.2174762,-111.6056385,92626,83296,63912,194.3194476
AZ,Goodyear,85338,33.413794,-112.3997841,57663,50646,31240,430.8514583
AZ,Kaibeto,86053,36.5452151,-111.3261199,68234,50891,55681,267.2212042
AZ,Pine,85544,34.3038561,-111.5611326,64766,63662,43945,190.9184119
AZ,Miami,85539,33.452695,-110.9371613,45393,38206,43960,144.9924527
AZ,San Carlos,85550,33.4885424,-110.4235097,51691,39374,58755,141.9280026
AZ,Surprise,85379,33.6165068,-112.3678926,86779,73302,60232,951.942321
AZ,Thatcher,85552,32.8638683,-109.7544601,64852,300000,53186,137.8969619
AZ,Safford,85546,32.8141246,-109.7192896,52828,43128,42504,494.3738013
AZ,Phoenix,85009,32.8913628,-109.5331779,68506,51503,56207,154.4265202
AZ,Parker,85344,33.8749524,-114.3598873,27839,21700,23814,388.4163538
AZ,Cave Creek,85327,33.8175437,-111.9168671,76076,49697,64282,500.0477809
AZ,Surprise,85378,33.6577414,-112.3366887,47361,37501,33904,553.2486679
AZ,Morristown,85342,33.8962909,-112.5112619,67211,56588,44977,400.5817533
AZ,Surprise,85388,33.66087,-112.42696,100613,300000,78864,170.1919838
AZ,Buckeye,85326,33.4267096,-112.5645555,64123,300000,37144,291.3881886
AZ,Phoenix,85018,33.464555,-112.4021325,70546,59022,44830,294.9487402
AZ,Peoria,85382,33.6294009,-112.2828515,45443,37353,32701,1689.202262
AZ,Glendale,85308,33.6315958,-112.418113,68634,59202,44211,528.3031273
AZ,Glendale,85031,33.5295913,-112.3500764,34126,23244,30910,372.7570757
AZ,Peoria,85381,33.6033854,-112.2606851,41322,33544,32593,1468.393662
AZ,Avondale,85323,33.4462357,-112.3417667,36663,44190,27720,284.5181722
AZ,Youngtown,85363,33.6103118,-112.2784919,46831,36258,37949,1168.908029
AZ,Glendale,85306,33.631369,-112.2099467,78406,63072,60304,466.5011135
AZ,Phoenix,60048,33.5893833,-112.2782881,49075,36002,36263,189.5947661
AZ,Peoria,85345,33.5887966,-112.2115049,62982,300000,52955,135.4965978
AZ,Phoenix,85037,33.4994539,-112.280234,58722,54288,27925,571.4757487
AZ,Chandler,85286,33.4496873,-112.3205947,69214,68132,39574,346.0780086
AZ,Tolleson,85353,33.4082453,-112.2599089,62737,63854,37537,302.6500781
AZ,Glendale,85302,33.5745886,-112.1945475,57211,55106,34539,334.5137471
AZ,Glendale,85301,33.5457957,-112.1774088,31282,24904,31028,643.4820149
AZ,Glendale,85303,33.5200387,-112.2117697,30984,22629,27231,412.8903047
AZ,Glendale,85307,33.515458,-112.2811302,57968,54131,33485,440.5134356
AZ,Phoenix,85032,33.6043843,-111.9344318,103743,86769,65815,174.2890598
AZ,Scottsdale,85254,33.6188319,-111.969144,100189,92369,60149,201.2523766
AZ,Phoenix,85023,33.6166417,-112.0797986,84906,91251,46740,209.2545167
AZ,Phoenix,85020,33.5941537,-112.0555576,76235,63024,54692,179.3899876
AZ,Phoenix,85029,33.6036114,-112.1252568,34711,24672,30892,719.4753118
AZ,Glendale,85305,33.4006324,-112.3294874,47875,38458,36905,512.8803562
AZ,Phoenix,85051,33.5723303,-112.1454437,59141,300000,45149,363.8556215
AZ,Glendale,85304,33.5885017,-112.1766306,75091,49478,72053,331.2518096
AZ,Phoenix,85028,33.5894838,-112.0243739,36247,25656,29339,293.8848791
AZ,Paradise Valley,85253,33.5441689,-111.9412986,158195,174901,87846,114.8520246
AZ,Phoenix,85021,33.5457403,-112.0910561,75338,300000,59932,199.9923729
AZ,Phoenix,85016,33.5269516,-112.0379507,99390,79042,64220,177.7511759
AZ,Phoenix,85015,33.5349394,-112.0953652,37367,19895,38402,372.9837541
AZ,Phoenix,85019,33.5204471,-112.1427058,32987,23394,30442,616.1139727
AZ,Phoenix,85012,33.5165357,-112.0737249,78584,59991,59261,377.8466772
AZ,Phoenix,85014,33.5042337,-112.0540658,55315,52319,39490,314.3158442
AZ,Phoenix,85013,33.5054188,-112.0934517,38576,25061,30902,522.9096677
AZ,Phoenix,85033,33.5025844,-112.1933395,53956,48164,38525,329.889774
AZ,Phoenix,85008,33.4740317,-111.9709762,57823,40924,47272,323.2554088
AZ,Phoenix,85006,33.4730134,-112.0432967,29408,25411,21820,299.7185225
AZ,Phoenix,85002,33.4730347,-112.0739665,84105,43191,80492,222.0878773
AZ,Phoenix,85035,33.4768815,-112.1777032,24834,21181,17371,463.0508648
AZ,Phoenix,85043,33.4071318,-112.2209946,40916,26685,38775,117.0607093
AZ,Phoenix,85007,33.4585736,-112.0913351,24292,13722,23092,281.0469848
AZ,Phoenix,85034,33.4295804,-112.0140972,0,0,0,0
AZ,Phoenix,85041,33.3993852,-112.142267,35368,28554,27890,444.8912812
AZ,Phoenix,85040,33.3995851,-112.0559842,37930,31929,30796,727.705935
AZ,Phoenix,85042,33.3885831,-111.9874871,53412,54722,33779,99.79110281
AZ,Phoenix,85044,33.3409205,-111.9835193,52684,42379,33469,510.2133187
AZ,Phoenix,85048,33.2979769,-111.9845655,87130,300000,57295,442.4435618
AZ,Scottsdale,85258,33.5751643,-111.8802501,57926,46086,45388,526.4446399
AZ,Scottsdale,85266,33.7883642,-111.819893,135404,300000,75709,229.0513889
AZ,Scottsdale,85259,33.5890025,-111.8373468,53478,38852,41506,750.3728974
AZ,Scottsdale,85255,33.6773576,-111.8382486,144695,140525,79065,117.4574833
AZ,Scottsdale,85250,33.529373,-111.898852,81232,67092,58464,370.7131192
AZ,Scottsdale,85251,33.5071933,-111.91706,62030,52713,49288,200.7924067
AZ,Scottsdale,85257,33.4794719,-111.9509448,112364,94834,71876,158.3227365
AZ,Scottsdale,85271,33.4619603,-111.9163918,53752,39205,37553,482.3499884
AZ,Tempe,85281,33.4146651,-111.952179,49214,30511,49539,368.3201323
AZ,Tempe,85285,33.4001798,-111.9349062,74365,62418,51542,230.4113837
AZ,Tempe,85283,33.3821331,-111.9533755,67101,58579,47130,243.5549545
AZ,Mesa,85207,33.4807379,-111.6750323,125247,300000,61736,198.1801132
AZ,Mesa,85205,33.4300703,-111.7277109,73432,50801,65851,408.8418538
AZ,Mesa,85215,33.4735699,-111.6925704,99691,300000,62209,285.1861805
AZ,Mesa,85206,33.4446172,-111.7102505,52597,34673,48645,744.7678503
AZ,Mesa,85201,33.4569965,-111.8274309,34286,28737,22710,269.2573482
AZ,Mesa,85203,33.443353,-111.8098312,64256,53389,46502,459.6407869
AZ,Mesa,85213,33.4300168,-111.7622801,110519,103507,68473,140.7226442
AZ,Mesa,85202,33.3966747,-111.8698091,33140,23772,26435,768.4812184
AZ,Mesa,85210,33.4040946,-111.8484498,32126,26913,23665,1033.506696
AZ,Chandler,85224,33.3422819,-111.8849819,83442,74528,54039,298.7113292
AZ,Gilbert,85233,33.3654099,-111.8263386,41678,41689,19868,682.7842002
AZ,Tucson,85754,33.5603767,-112.1126416,41514,28215,42720,700.8755736
AZ,Gilbert,85234,33.357289,-111.7814095,70852,51976,57088,485.7825579
AZ,Gilbert,85296,33.3428917,-111.764314,101890,84302,70831,224.9525839
AZ,Higley,85236,33.3503525,-111.7214724,115491,300000,55893,424.1953175
AZ,Mesa,85208,33.3950184,-111.6097111,100687,88002,53035,239.1447643
AZ,Mesa,85209,33.3863343,-111.6609716,42627,39086,33707,553.5438038
AZ,Mesa,85212,33.3057429,-111.6550856,42944,33147,32337,244.2286147
AZ,Anthem,85086,33.8634136,-112.1071558,123366,300000,51811,44.62641082
AZ,Peoria,85383,33.7110414,-112.21145,126364,300000,60251,172.5802075
AZ,Glendale,85310,33.7200708,-112.1508333,132807,126260,61523,150.816973
AZ,Phoenix,85027,33.6727311,-112.0866239,61944,47800,48677,364.6862542
AZ,Phoenix,85053,33.6612529,-112.1205769,91682,300000,49867,138.0866117
AZ,Phoenix,85050,33.6665053,-112.0224747,45602,40442,29266,470.7508976
AZ,Phoenix,85022,33.6513489,-112.0395987,46121,41272,35093,589.5095318
AZ,Chandler,85226,33.3293036,-111.9223852,107971,104211,67693,252.8436865
AZ,Tempe,85284,33.3154159,-111.9587756,101453,104080,58597,130.3881917
AZ,Chandler,85225,33.2990273,-111.81557,89718,80561,57558,302.5791044
AZ,Chandler,85248,33.2688801,-111.8759427,100274,91320,54356,183.4843369
AZ,Chandler,85249,33.2407344,-111.8153055,150189,143590,59856,122.8170622
AZ,Gilbert,85297,33.2896892,-111.7504423,144662,300000,68904,161.4508048
AZ,Queen Creek,85142,33.2751553,-111.6800201,118668,300000,57537,338.7361531
AZ,Scottsdale,85256,33.5222009,-111.7981089,57997,39241,60766,170.4251399
AZ,Fort Mohave,86426,34.9604936,-114.6151249,41544,31907,32372,152.9955843
AZ,Golden Valley,86413,35.3439846,-114.3630145,38024,25956,34749,476.9879375
AZ,Bullhead City,86429,35.1336496,-114.4816885,39075,31129,27980,395.7208645
AZ,Lake Havasu City,86404,34.5081953,-114.3204536,48089,300000,33308,723.7195979
AZ,Lake Havasu City,86403,34.4884297,-114.3247882,80354,70277,61818,180.3244583
AZ,Wikieup,85360,34.8405587,-113.7617762,61726,46076,54718,657.5673379
AZ,Whiteriver,85941,33.7298265,-109.926978,32370,18642,31840,412.0085732
AZ,Heber,85928,34.4126384,-110.5865747,28499,20926,21249,266.8971459
AZ,Tucson,85719,32.2300551,-110.9526249,33407,24131,30660,375.8441654
AZ,Tucson,85714,32.1727642,-110.9531268,36805,24215,44514,371.29726
AZ,Tucson,85746,32.1337396,-111.002285,44643,37557,28455,354.721871
AZ,Tucson,85730,32.1611116,-110.8489515,55419,50335,33168,768.733259
AZ,Tucson,85749,32.2740611,-110.7247798,97246,100290,60152,240.3521648
AZ,Tucson,85747,32.1387607,-110.7687946,83191,75590,44996,814.2760011
AZ,Tucson,85735,32.1900152,-111.0858689,45662,40069,27888,227.4615519
AZ,Tucson,85709,32.2195871,-111.0067634,57062,50459,44620,141.8602015
AZ,Marana,85653,32.3829457,-111.4550797,59197,38001,47458,485.2436781
AZ,Tucson,85741,32.3286184,-111.0472414,43737,32963,35933,589.4530275
AZ,Phoenix,85003,33.4477675,-112.0738956,72305,49042,70051,284.0833216
AZ,Tucson,85737,32.4031955,-110.9893838,119168,101458,71877,346.5357234
AZ,San Tan Valley,85140,33.2345093,-111.5546541,84727,300000,34867,250.0514198
AZ,Apache Junction,85219,33.385386,-111.4658192,79561,300000,60462,260.2536965
AZ,Maricopa,85138,33.0789461,-112.0255707,55403,50317,38119,377.0128442
AZ,Maricopa,85239,33.0525774,-111.9660231,58366,59306,54739,172.5162974
AZ,Eloy,85231,32.7517677,-111.5350247,36791,23123,33748,347.4848452
AZ,Stanfield,85272,32.7426854,-112.0121319,31761,24607,29577,328.5487169
AZ,Laveen,85339,33.3848215,-112.2072947,87204,81729,47513,633.74454
AZ,Rio Rico,85648,31.4535648,-111.1181423,62745,44272,40548,243.3912957
AZ,Chino Valley,86323,34.7099289,-112.4849161,48582,41878,36372,882.8774404
AZ,Prescott,86301,34.5873866,-112.4551462,59918,52759,39615,116.2941551
AZ,Prescott Valley,86314,34.6118009,-112.350348,51402,28842,54504,269.75546
AZ,Cornville,86325,34.713134,-111.9229809,65955,300000,49392,426.9906356
AZ,Sedona,86336,34.900897,-111.9203748,84273,300000,72568,488.1449664
AZ,Yuma,85365,32.6908265,-114.6145067,29044,26594,25407,432.8801835
AZ,Yuma,85367,32.684001,-114.4301138,105441,300000,63259,156.423939
AZ,Young,85554,34.0978185,-111.0155491,45288,40205,32301,482.0471425
AR,Hamburg,71646,33.224818,-91.797375,43595,30490,40843,821.4262114
AR,Cove,71937,34.484507,-94.37991,34755,20134,40542,142.2930255
AR,Greers Ferry,72067,35.566406,-92.20518,56439,52597,33290,37.99780881
AR,Brockwell,72517,36.218726,-91.738324,141250,300000,11479,0.399935997
AR,Stuttgart,72160,34.542304,-91.759996,49237,39255,37041,56.79849148
AR,Jasper,72641,36.0105,-93.185469,44172,22379,58370,175.5581074
AR,Keiser,72351,35.674001,-90.095544,39381,32307,29775,163.6286072
AR,Lake City,72437,35.81937,-90.453905,42530,36630,32454,636.7788001
AR,Poyen,72128,34.170133,-92.591386,33766,27623,26310,142.9300061
AR,London,72847,35.325621,-93.243595,42109,32904,35383,278.2576576
AR,Mccrory,72101,35.25743,-91.197058,35812,23855,36829,571.8132604
AR,Magnolia,71753,33.276698,-93.226247,47447,34056,45303,2990.574722
AR,Marmaduke,72443,36.189439,-90.385694,40121,31094,36474,309.0199831
AR,Hartford,72938,35.092403,-94.352955,29908,18645,32085,94.95910193
AR,Wheatley,72392,34.792129,-90.988,38283,33695,26122,102.5980617
AR,Mulberry,72947,35.508517,-94.074754,38940,27999,35391,550.3426054
AR,Norman,71960,34.458994,-93.676822,31172,26738,23161,124.8278521
AR,Walnut Ridge,72476,36.171687,-90.818286,25318,22527,17714,75.26505955
AR,Pangburn,72121,35.42608,-91.838741,35811,33507,29290,234.6610777
AR,Perryville,72126,35.044755,-92.793451,46284,38460,31546,74.09869615
AR,Morrilton,72110,35.159377,-92.643059,55086,35612,56743,275.5896046
AR,Rector,72461,36.264476,-90.293093,41443,32066,35641,613.1441106
AR,Barton,72312,34.657506,-90.820884,20112,14342,16916,114.5958262
AR,St Paul,72760,35.826802,-93.767303,36716,33565,21719,37.06578041
AR,Sheridan,72150,34.321598,-92.443045,58373,46872,46594,1162.086045
AR,Sparkman,71763,33.917296,-92.849991,38731,26016,33105,146.7957052
AR,Taylor,71861,33.099834,-93.461802,49313,34737,44027,132.3266291
AR,Tuckerman,72473,35.724977,-91.20161,44836,34907,41176,725.8402032
AR,Vandervoort,71972,34.379781,-94.364919,22366,18542,15465,20.66595555
AR,Warren,71671,33.611829,-92.067718,40194,27965,42212,1839.665554
AR,Wilson,72395,35.565961,-90.0418,60543,47215,52608,206.7571039
AR,Saratoga,71859,33.718823,-94.008904,46324,300000,37804,147.3972158
AR,Bryant,72022,34.618169,-92.451289,31297,20505,27422,62.36263124
AR,Newport,72112,35.563186,-91.109424,23633,300000,17029,50.89978598
AR,Marianna,72360,34.719723,-90.898069,38906,21381,36738,58.76446729
AR,Bauxite,72011,34.559747,-92.499622,41559,36227,29635,132.7294358
AR,Benton,72015,34.577424,-92.572583,66497,51871,51272,7121.47984
AR,Monette,72447,35.83661,-90.3677,49473,38434,38360,73.06413364
AR,Jonesboro,72404,35.908593,-90.79706,39788,36140,25046,752.0810865
AR,Flippin,72634,36.37357,-92.591504,43262,35834,31341,733.9814994
AR,Cedarville,72932,35.58306,-94.361781,59148,50445,41071,389.6826364
AR,Camden,71701,33.701485,-93.023945,29658,18742,26703,108.2627506
AR,Conway,72034,35.07435,-92.467078,61441,48543,51719,14269.7482
AR,Kirby,71950,34.235924,-93.739193,42990,35864,28954,36.56576595
AR,Leslie,72645,35.747919,-92.549999,29546,18751,33868,178.7971399
AR,Donaldson,71941,34.234145,-92.918641,39519,26931,33164,77.43011167
AR,Friars Point,38631,34.308574,-90.853346,30032,19647,30918,249.2211325
AR,Caraway,72419,35.715807,-90.230627,44134,34026,36987,84.32815103
AR,Crossett,71635,33.060828,-92.149031,31456,32937,17179,35.99874443
AR,Hot Springs,71901,34.614003,-92.919727,52558,46562,34200,107.7950362
AR,Garfield,72732,36.485793,-93.938574,51528,44983,41361,94.12975318
AR,Sonora,72764,36.102458,-94.001579,112207,99636,79398,233.0564915
AR,Greenwood,72936,35.21375,-94.240815,64615,52751,52072,1848.113274
AR,Concord,72523,35.5815703,-91.8684332,34936,23191,36384,494.1549803
AR,Heber Springs,72543,35.5064321,-91.9984836,41075,19272,43552,243.356171
AR,Quitman,72131,35.4563187,-92.1813642,65600,45354,60698,358.6527874
AR,Emerson,71740,33.1763352,-93.0937911,73985,61539,47754,303.9516764
AR,Center Ridge,72027,35.3283458,-92.5942172,53764,42773,44562,408.7474176
AR,Jonesboro,72401,35.8352938,-90.732435,46802,44852,34557,312.6529904
AR,Bay,72411,35.7608962,-90.5135722,45468,37685,32211,477.0519527
AR,Brookland,72417,35.91406,-90.5532851,64673,52538,65881,372.9441175
AR,Van Buren,72956,35.5022066,-94.4302122,75145,51036,63896,858.1733468
AR,West Memphis,72301,35.1542649,-90.1676997,33923,30229,24409,351.9287928
AR,Rison,71665,33.814492,-92.1476206,57828,46803,48177,964.62089
AR,Earle,72331,35.3525223,-90.3702057,78777,72338,52201,81.4940661
AR,Marion,72364,35.215059,-90.1355163,76159,62034,64596,197.1868079
AR,Wynne,72396,35.2280856,-90.8043199,36521,31880,29231,433.5063318
AR,Dumas,71639,33.8762654,-91.4241176,20862,16258,17278,344.5864595
AR,Dermott,71638,33.5972479,-91.5872161,55695,33003,57788,145.4578392
AR,Monticello,71655,33.6054188,-91.8211792,49946,27699,60099,175.3137589
AR,Greenbrier,72058,35.1954905,-92.3577718,60640,46960,46753,266.1907187
AR,Vilonia,72173,35.0765755,-92.3137647,56573,45089,33754,363.5901789
AR,Conway,72032,35.1242715,-92.3598425,73391,70609,43701,371.8771711
AR,Ozark,72949,35.6244314,-93.8744835,51212,40484,35161,243.556929
AR,Branch,72928,35.3627064,-93.9594849,52530,42909,40886,400.9213681
AR,Viola,72583,36.3765117,-91.9627259,38899,27533,27919,286.9607774
AR,Hot Springs,71913,34.5349167,-93.0431886,29634,16512,38479,302.5114609
AR,Hot Springs,71914,34.5029137,-93.1444266,54421,41431,44216,276.0551468
AR,Jessieville,71949,34.6544705,-93.0193095,62805,50487,49041,494.9144565
AR,Paragould,72450,36.1787425,-90.4924465,50396,44103,33595,649.774402
AR,Hope,71801,33.6656532,-93.5443256,32222,30537,21098,310.0616693
AR,Malvern,72104,34.3402532,-92.8157617,36459,31107,24361,353.0545245
AR,Mineral Springs,71851,33.8825405,-93.9278794,64750,48474,52768,155.8281584
AR,Batesville,72501,35.851779,-91.6467559,43354,31693,38788,691.4157697
AR,Newark,72562,35.7485331,-91.3772147,40829,34719,33198,427.7811678
AR,White Hall,71602,34.3058883,-92.1125276,95008,85442,74946,105.3921237
AR,Pine Bluff,71601,34.2172752,-91.9771867,42802,29472,30644,87.73147373
AR,Pine Bluff,71603,34.2212074,-92.0340918,29997,18140,26515,133.2930797
AR,Mountain Home,72653,36.3083026,-92.3815903,44162,36614,34055,1514.228992
AR,Altheimer,72004,34.3188994,-91.8080983,34661,26162,27608,198.2611727
AR,Clarksville,72830,35.4953184,-93.4967598,56068,300000,37308,209.1945321
AR,Lamar,72846,35.4358689,-93.3480391,56864,35472,60440,360.4560902
AR,Hoxie,72433,36.0259169,-90.979586,34824,21619,34456,294.7882296
AR,Palestine,72372,34.834235,-90.9523364,51008,34422,44374,227.8909928
AR,Star City,71667,33.9146484,-91.7060232,50728,34703,44792,142.9292417
AR,Ashdown,71822,33.6327452,-94.1518784,63638,35204,60792,175.0948082
AR,Foreman,71836,33.7864194,-94.2762774,52593,37712,46747,324.1214713
AR,Magazine,72943,35.1841381,-93.8295753,62133,42437,55440,367.7539242
AR,Ward,72176,35.0029138,-91.9330783,51697,45977,28316,845.3736766
AR,Cabot,72023,34.9846033,-92.0028444,75147,65659,43006,206.3903902
AR,Jacksonville,72076,34.8294442,-92.016321,52529,52750,36239,297.7852535
AR,England,72046,34.6440193,-91.9862173,60938,47062,45699,236.2252574
AR,Huntsville,72740,36.0826413,-93.7400843,52841,40233,41917,296.358776
AR,Yellville,72687,36.1484039,-92.6436026,46070,38190,37166,579.2682365
AR,Texarkana,71854,33.4380327,-94.0365646,70530,60541,58445,170.5897163
AR,Blytheville,72315,35.8966508,-89.9230788,27570,21012,22989,401.9522706
AR,Clarendon,72029,34.5964842,-91.1512537,45955,29222,36666,108.0966494
AR,Ola,72853,34.9267399,-93.0798642,51845,40779,52685,266.652981
AR,Marvell,72366,34.5444409,-90.8739823,27554,25602,17916,241.0630426
AR,West Helena,72390,34.5267051,-90.6575321,15542,12837,9219,244.3274667
AR,Murfreesboro,71958,34.0392117,-93.607774,45561,25354,47033,211.0939481
AR,Harrisburg,72432,35.5795502,-90.5367161,47081,35799,35986,176.6279129
AR,Mena,71953,34.6503938,-94.3189874,41625,35775,29284,355.2574659
AR,Dover,72837,35.3804003,-93.0918168,47160,33316,35089,328.5902066
AR,Russellville,72801,35.2995467,-93.1140448,40602,36427,31191,708.691836
AR,Hazen,72064,34.7396802,-91.6134999,57163,44761,42878,304.4194331
AR,Little Rock,72206,34.7170554,-92.2729487,37068,30565,32671,325.9885554
AR,Little Rock,72205,34.7578226,-92.327379,56326,58050,33136,126.9550036
AR,Little Rock,72207,34.7755078,-92.3234458,118293,300000,73606,140.924493
AR,Little Rock,72204,34.7250352,-92.3292048,40534,16264,61856,208.391536
AR,Little Rock,72201,34.7598425,-92.2705685,42047,28859,42234,199.3949815
AR,North Little Rock,72114,34.7684082,-92.2387932,25890,14822,22427,68.82869433
AR,North Little Rock,72118,34.7970554,-92.2848994,35859,23494,31930,745.5793412
AR,North Little Rock,72116,34.7875234,-92.2458551,41187,33243,25648,222.6277328
AR,North Little Rock,72120,34.9059204,-92.2152469,63412,42307,53995,183.2586391
AR,Little Rock,72209,34.6542916,-92.3552274,39345,32298,35473,380.8945256
AR,Little Rock,72223,34.8271291,-92.6200592,91219,54396,82037,351.820176
AR,Little Rock,72210,34.6963815,-92.483476,67466,66294,49252,199.2841799
AR,Maumelle,72113,34.8778467,-92.4224258,50170,46464,38174,269.5438476
AR,Maynard,72444,36.3271841,-90.8734649,64303,58931,53352,118.6614153
AR,Pocahontas,72455,36.251031,-90.9550618,35269,35855,19103,360.6613774
AR,Forrest City,72335,35.0898884,-90.8280797,27555,19354,24289,315.1165585
AR,St  Joe,72675,35.9307228,-92.8238787,50015,34177,49646,268.6571714
AR,Fort Smith,72904,35.4160646,-94.3742474,31717,25789,24024,279.5251856
AR,Fort Smith,72903,35.3806536,-94.3878611,33300,20279,33334,339.9150503
AR,Fort Smith,72901,35.3640704,-94.4128461,37088,24484,34251,331.3891126
AR,Fort Smith,72908,35.2856785,-94.4109952,85554,70685,73357,290.5534755
AR,Dequeen,71832,34.0414618,-94.3571263,35834,30952,19394,397.9274858
AR,Hardy,72542,36.3040997,-91.494724,43294,32640,29578,181.4625652
AR,Cave City,72521,36.0099433,-91.5157647,32776,32383,19169,541.9865508
AR,Mountain View,72560,35.8366086,-92.094325,38293,23741,35333,568.2533592
AR,Pea Ridge,72751,36.4083177,-94.1178442,83571,67751,62051,994.1116252
AR,Smackover,71762,33.3361675,-92.7314327,54222,46745,44263,175.1612456
AR,El Dorado,71730,33.1037209,-92.5615182,51926,51461,33114,211.6572838
AR,Clinton,72031,35.5720447,-92.3642236,51943,42011,34960,371.2566103
AR,Fayetteville,72703,36.124794,-94.1338947,47481,43226,41499,177.2567005
AR,Springdale,72762,36.1653409,-94.2734944,68276,44580,66109,446.9133723
AR,Farmington,72730,36.0496246,-94.2745417,82887,81414,55634,562.2352516
AR,Fayetteville,72701,36.0305065,-94.1649324,22348,12106,23185,535.6598489
AR,Searcy,72143,35.2962848,-91.7523394,36214,28270,25566,230.5262368
AR,Beebe,72012,35.15998,-91.9628497,69736,66983,42739,668.0680706
AR,Augusta,72006,35.2525075,-91.3347738,40892,33536,41202,693.268767
AR,Dardanelle,72834,35.1486423,-93.2782641,54745,45401,36534,475.1788074
AR,Lonoke,72086,34.8546328,-91.9290357,69614,58416,51044,792.5670315
AR,Rogers,72756,36.3225266,-94.1371534,58396,43440,48067,1044.73085
AR,Trumann,72472,35.6786785,-90.53183,49235,46187,34810,1074.820401
AR,Hector,72843,35.5807244,-93.0163604,43222,36733,34176,1146.901789
AR,Russellville,72802,35.2259426,-93.0978552,43878,38414,34575,2104.845758
AR,Bella Vista,72714,36.4847655,-94.2003287,75247,70059,46000,991.8847044
AR,Little Rock,72212,34.7757267,-92.3875534,81944,72307,58987,1347.681162
AR,Mabelvale,72103,34.6685776,-92.3905375,33569,24654,26514,1147.427409
AR,Gentry,72734,36.2844613,-94.513734,55902,46995,42809,1593.037589
AR,Waldron,72958,34.9274818,-94.1351433,53636,47154,41031,1175.021027
AR,Dewitt,72042,34.3069023,-91.3895216,62145,37402,60817,442.687432
AR,Hackett,72937,35.214942,-94.3906555,72302,55632,62562,1395.600257
AR,Timbo,72680,35.8828834,-92.2512593,42872,31287,43350,1157.296882
AR,Lowell,72745,36.2487062,-94.1648664,87613,68801,64259,1254.082809
AR,Bradford,72020,35.3891861,-91.5245021,52801,38865,44704,1074.675712
AR,Danville,72833,34.8794694,-93.4762462,46117,35171,34487,608.2784162
AR,Gillett,72055,34.1186356,-91.330666,52407,39821,41111,217.7931271
AR,Cotter,72626,36.318364,-92.5138407,37578,31023,30692,299.7886439
AR,Valley Springs,72682,36.1767389,-92.990687,50528,41496,36506,1510.153555
AR,Rogers,72758,36.3004942,-94.1212477,52877,51384,25504,651.2062286
AR,Bentonville,72712,36.3608133,-94.1911898,39761,34063,30863,628.0203232
AR,Centerton,72719,36.3705021,-94.2742006,99608,98726,55516,218.078765
AR,Gravette,72736,36.4140841,-94.5288329,63848,40361,54925,290.4223423
AR,Siloam Springs,72761,36.1555108,-94.536747,50198,41567,42607,251.3478664
AR,Hampton,71744,33.5406233,-92.4056869,45135,33197,39186,799.6398643
AR,Harrison,72601,36.2233149,-93.101333,57327,300000,39188,281.4606093
AR,Hermitage,71647,33.5403608,-92.1410173,62069,43176,51982,279.4261883
AR,Berryville,72616,36.3826636,-93.5603328,44546,26266,50675,339.4517048
AR,Eudora,71640,33.14334,-91.3577924,47672,36362,36899,243.9250763
AR,Arkadelphia,71923,34.0967794,-93.0818072,15984,9618,18373,209.7138827
AR,Piggott,72454,36.3346921,-90.1887574,56088,40096,43792,187.1908983
AR,Corning,72422,36.4016321,-90.5842507,46040,28259,46759,289.0921136
CA,Bieber,96009,41.199312,-120.956779,54602,300000,32641,37.89886592
CA,Blocksburg,95514,40.161347,-123.615729,24830,300000,14770,140
CA,Alpine,91901,32.842286,-116.756044,91662,79440,65636,2524.288055
CA,Watsonville,95076,36.959483,-121.781739,63761,48440,55214,620.1108734
CA,Aptos,95003,36.991147,-121.892758,96841,82737,67911,1074.376484
CA,Arroyo Grande,93420,35.124305,-120.584854,81093,63124,62913,3757.198136
CA,Auburn,95603,38.895075,-121.076739,71164,52951,60295,3517.812965
CA,Bakersfield,93304,35.321213,-119.018291,71025,56986,57439,62475.41281
CA,Eureka,95503,40.765335,-124.178605,41404,31689,37090,805.415579
CA,Bella Vista,96008,40.651672,-122.256513,60891,54896,39884,576.7052983
CA,Benton,93512,37.843606,-118.4899,33158,31129,17722,125.1972013
CA,Big Bend,96011,41.011615,-121.930444,29530,19739,22104,51.39958044
CA,Novato,94945,38.109893,-122.518376,132698,127534,71468,131.4542103
CA,Bolinas,94924,37.917725,-122.709502,100173,76150,73456,241.2548682
CA,Borrego Springs,92004,33.245398,-116.357035,41547,31028,31083,897.9791032
CA,Brentwood,94513,37.935905,-121.718547,100640,92772,64768,7494.298571
CA,Buellton,93427,34.615497,-120.194237,80327,71623,55978,887.1411079
CA,Oroville,95965,39.668804,-121.645889,78774,55666,52503,114.2937378
CA,Calimesa,92399,33.987344,-117.054211,61578,45346,50889,2145.657044
CA,Cambria,93428,35.552479,-121.084527,78162,60687,56027,1536.927056
CA,Camptonville,95922,39.452065,-121.048719,45763,32833,48119,67.79749948
CA,Bodega Bay,94923,38.374452,-123.071859,32499,300000,1826,7
CA,Santa Maria,93455,34.837589,-120.531071,72668,300000,26981,16.33230215
CA,Cazadero,95421,38.527831,-123.109799,57388,41500,50971,87.59678633
CA,Covina,91724,34.102483,-117.856315,74506,62609,49426,1443.873552
CA,Chino,91710,33.978037,-117.657719,82439,72505,56415,9358.209267
CA,Clayton,94517,37.94032,-121.930076,135724,130312,75495,1170.297162
CA,Concord,94520,38.0254,-122.02806,67508,39905,59076,185.8945947
CA,Colfax,95713,39.093799,-120.953222,62241,48972,48721,597.7122048
CA,Compton,90220,33.894047,-118.227469,52186,43250,40688,15651.35009
CA,West Covina,91723,34.090475,-117.882143,77334,64833,55152,7877.274525
CA,Quincy,95971,39.868383,-120.690446,36865,26537,29934,77.66302436
CA,Daly City,94014,37.700941,-122.464979,88415,74953,62070,14227.33025
CA,Delano,93215,35.763183,-119.26356,46670,35348,36810,8089.25516
CA,Mckittrick,93251,35.244025,-119.603833,64762,38492,59874,74.46300767
CA,Diamond Bar,91765,34.001573,-117.817601,101668,89518,68452,7349.172615
CA,Avery,95224,38.294369,-120.270062,94240,36578,87348,93.63114264
CA,Dublin,94568,37.716154,-121.896234,126995,119417,72770,5306.969342
CA,Hemet,92544,33.730139,-116.940992,59514,47505,48363,3515.860487
CA,Compton,90221,33.894834,-118.195587,55412,43934,43685,2192.074721
CA,San Luis Obispo,93401,35.210785,-120.605967,70959,300000,30348,42.33158214
CA,Elk Creek,95939,39.598678,-122.53232,43059,36830,25925,54.2655284
CA,El Segundo,90245,33.917145,-118.401554,104661,86968,70772,2594.748769
CA,Escondido,92026,33.133053,-117.074043,67119,51007,55767,26781.68199
CA,Chowchilla,93610,37.077473,-120.193661,46256,31719,41939,298.7854985
CA,Sonoma,95476,38.327504,-122.487137,67684,53517,59891,901.689843
CA,Flournoy,96029,39.928357,-122.446164,55519,52439,37852,26.96505016
CA,New Pine Creek,97635,41.863301,-120.159395,39439,25955,35242,58.86420663
CA,Merced,95348,37.327717,-120.532114,49495,36846,45243,1455.982531
CA,Fresno,93730,36.984012,-119.70806,33535,18417,34551,126.3978737
CA,Stockton,95215,37.963697,-121.22961,45384,38763,31249,2121.733625
CA,Gilroy,95020,37.006407,-121.585321,94368,81326,67204,6759.372169
CA,Downieville,95936,39.552354,-120.893102,21163,30485,13700,21.33186667
CA,Westley,95387,37.564951,-121.179463,46187,27144,47208,191.6273689
CA,Greenville,95947,40.133603,-120.945333,40839,27678,41290,411.1558471
CA,Gustine,95322,37.254514,-120.99487,55566,38476,48129,1306.722967
CA,Vacaville,95688,38.420393,-121.950842,107548,88891,67964,331.138726
CA,Herald,95638,38.288434,-121.231034,105322,116734,59006,112.8202311
CA,Highland,92346,34.113473,-117.165729,71416,53373,58733,8813.006147
CA,Twentynine Palms,92227,34.273019,-116.414529,38162,26647,35631,1055.96573
CA,Huntington Beach,92648,33.690569,-118.00933,98804,83908,69678,31761.5595
CA,Ione,95640,38.36003,-120.944343,67768,50637,55281,1656.289486
CA,Jamul,91935,32.721063,-116.863036,116516,111367,64817,633.919829
CA,Jurupa Valley,92509,34.002591,-117.467612,66953,57050,50640,14036.38353
CA,Kenwood,95452,38.415407,-122.538753,102857,300000,73360,244.4561889
CA,Truckee,96161,39.320997,-120.438309,69749,300000,5981,4.332755517
CA,Ladera Ranch,92694,33.549356,-117.641503,146539,137452,77834,2023.408861
CA,Chester,96020,40.257771,-121.146958,105321,76530,81893,128.3924985
CA,Redding,96003,40.903436,-122.399658,54704,31295,54483,182.8266163
CA,Aguanga,92536,33.518735,-116.812103,64425,69282,33988,131.1573252
CA,Riverdale,93656,36.437717,-119.932208,53317,300000,65690,55.19900439
CA,Lebec,93243,34.844614,-118.899237,50166,300000,41056,281.5258477
CA,Barstow,92311,34.885199,-117.108326,45143,37956,31897,851.0743396
CA,Lindsay,93247,36.208216,-119.08968,40664,30077,37152,2561.348022
CA,Livingston,95334,37.387281,-120.724943,57266,51069,42662,2075.741652
CA,Ben Lomond,95005,37.114619,-122.052768,89332,62885,73377,246.08916
CA,Mountain View,94040,37.368538,-122.096629,159081,173800,86393,2823.202214
CA,Lost Hills,93249,35.632801,-119.677762,36199,30997,22659,426.6939911
CA,Mcarthur,96056,41.041995,-121.40524,62566,43080,47125,97.25956609
CA,Madera,93637,36.963983,-120.080243,49807,40326,39810,11750.31659
CA,Eureka,95502,40.850897,-124.163193,46160,31868,43754,264.7268056
CA,Jackson,95642,38.362045,-120.803077,42633,300000,36037,53.96475965
CA,Merced,95340,37.305695,-120.477871,51987,36937,46907,17272.41509
CA,Herlong,96113,40.149446,-120.370205,123055,300000,71595,20.33039184
CA,Lompoc,93438,34.688779,-120.43975,103219,83492,73625,478.1718098
CA,Monrovia,91016,34.163997,-117.984612,86051,70785,65240,6344.810224
CA,Turlock,95313,37.526814,-121.011487,22499,300000,1826,22
CA,Twentynine Palms,92277,34.072377,-116.562727,48547,33293,48459,1107.299565
CA,Martinez,94553,38.00924,-122.116855,67025,50450,53449,618.9797789
CA,San Bernardino,92411,34.156059,-117.346405,44076,35849,36861,1830.544045
CA,Tulelake,96134,41.888731,-121.360249,22615,16194,19484,94.15788323
CA,Norco,92860,33.925519,-117.551958,97832,86829,66154,2962.490327
CA,Richmond,94801,37.965271,-122.370668,50937,31359,53493,759.6696575
CA,Oak Hills,92344,34.389944,-117.403108,87622,71797,59360,1374.544059
CA,Oceano,93445,35.101608,-120.608217,54837,48931,42496,1648.560724
CA,Weldon,93283,35.67022,-118.227163,39841,29148,43934,221.297244
CA,Oroville,95966,39.49362,-121.483755,59644,48663,50221,2043.269636
CA,Palm Desert,92260,33.737797,-116.36372,71209,53175,60825,13853.03552
CA,Paramount,90723,33.898883,-118.166629,55116,45286,41505,8982.711824
CA,Visalia,93292,36.379521,-119.295604,50731,32526,43675,367.0219398
CA,Petaluma,94952,38.242253,-122.628631,91924,79519,64791,9693.844052
CA,King City,93930,36.172072,-121.143013,75691,59995,51853,310.9527356
CA,Piru,93040,34.406921,-118.799572,57660,48204,35144,355.1868364
CA,Santa Cruz,95062,36.959718,-121.970036,80553,56067,64635,1481.962095
CA,Benicia,94510,38.044542,-122.184944,104845,300000,43214,54.99535981
CA,Ramona,92065,33.045619,-116.877515,77090,65343,55980,3391.375839
CA,Corning,96021,40.004003,-122.42834,37053,28386,30944,669.9791196
CA,Redwood Valley,95470,39.268548,-123.202758,84082,83217,38317,202.6434942
CA,Rio Dell,95562,40.495591,-124.11493,45122,36946,37398,940.8291692
CA,Somerset,95684,38.545423,-120.747469,48136,300000,10142,96.4970497
CA,Lomita,90717,33.780959,-118.325312,143582,140323,84725,834.7498388
CA,Ross,94957,37.963815,-122.561569,164985,184260,84272,191.383542
CA,Sacramento,95816,38.566592,-121.468632,64615,49743,55451,106035.137
CA,Upland,91784,34.15642,-117.658705,107195,92987,69393,429.9715341
CA,San Dimas,91773,34.107957,-117.808529,91998,79150,65569,5521.877841
CA,San Juan Capistrano,92675,33.500581,-117.654433,95567,74019,75480,5502.356209
CA,San Miguel,93451,35.753406,-120.692396,62308,49204,50986,456.7158801
CA,Santa Cruz,95060,36.974385,-122.035268,80113,62204,68648,11162.01873
CA,San Rafael,94903,38.005569,-122.502811,97244,87362,71020,735.9560443
CA,Shingletown,96088,40.506094,-121.855665,52956,46292,37775,674.1127942
CA,Helendale,92342,34.75011,-117.345998,73676,68209,47124,1105.876623
CA,South Gate,90280,33.944159,-118.192761,54149,42954,41327,15639.6822
CA,Ravendale,96123,40.655664,-120.78626,60188,300000,25016,59.99711981
CA,Palo Alto,94304,37.427021,-122.167747,89161,48662,87102,1727.77131
CA,Porterville,93257,36.143436,-119.061469,33647,25143,27845,650.3449576
CA,Taft,93268,35.13375,-119.47114,57445,61051,38812,496.7669288
CA,Shoshone,92384,35.820581,-116.205051,24696,11792,21600,44.16238328
CA,Terra Bella,93270,35.956727,-119.032841,38206,29463,31173,476.1208016
CA,Tracy,95376,37.724597,-121.445538,87689,76613,56410,10926.34786
CA,Tulare,93274,36.199366,-119.341921,58613,46466,47634,11625.22015
CA,Castaic,91384,34.450423,-118.671784,80845,72205,53806,319.7463971
CA,Azusa,91702,34.098229,-117.923815,82224,76099,46663,1882.597805
CA,Walnut,91789,34.037195,-117.855606,108837,100267,70014,3297.824704
CA,Torrance,90502,33.823139,-118.293685,79017,63800,58101,3661.269191
CA,Los Angeles,90047,33.941679,-118.301838,39928,26090,41109,7649.302158
CA,Wheatland,95692,39.031163,-121.389996,64580,60943,48120,688.8004415
CA,Willow Creek,95573,40.939131,-123.636666,35613,35444,27148,527.1595584
CA,Lake Isabella,93240,35.71497,-118.472683,52875,44008,40482,674.4816543
CA,Kensington,94708,37.9094178,-122.2748795,141291,300000,68996,86.36003848
CA,Crescent City,95531,41.7597759,-124.1632913,56914,46533,56987,420.0089599
CA,Fort Dick,95538,41.8536708,-124.1663143,65856,56124,45132,295.0538455
CA,South Lake Tahoe,96150,38.9314741,-119.9613705,68506,58839,49757,213.3206343
CA,Cool,95614,38.8279567,-121.0265108,93996,74907,64056,368.0082161
CA,El Dorado Hills,95762,38.737015,-121.0874235,135569,300000,76906,346.4413449
CA,Bakersfield,93307,35.3613217,-118.9879161,26342,18277,23523,1260.375189
CA,Cameron Park,95682,38.662649,-121.012167,122054,121110,67834,169.0480261
CA,Placerville,95667,38.7187575,-120.8955514,94510,86770,61106,319.2839918
CA,Grizzly Flat,95636,38.6035985,-120.5343814,80195,32216,83414,394.7547941
CA,Fresno,93721,36.7276566,-119.7762088,31331,27171,20701,282.9901065
CA,Pasadena,91107,36.743063,-119.7933565,26936,24459,35385,275.4869913
CA,Fresno,93706,36.717769,-119.8042772,32195,18241,37370,328.847133
CA,Bakersfield,93311,35.3307397,-119.1012475,101564,91187,67621,1073.419151
CA,Fresno,93725,36.7026849,-119.7410277,37775,32819,26587,409.3519043
CA,Fresno,93727,36.7433669,-119.6911739,114884,300000,74827,106.3276696
CA,Fowler,93625,36.6433218,-119.6486262,68012,41889,62116,462.9525378
CA,Fresno,93728,36.7590503,-119.8157426,37213,23315,33954,270.9616485
CA,Fresno,93703,36.758343,-119.7810169,46000,21914,57257,245.889836
CA,Fresno,93702,36.7540821,-119.7634759,25363,24284,15385,490.8905481
CA,Clovis,93612,36.7976616,-119.7203949,47015,46353,31916,380.1159248
CA,Fresno,93704,36.7721367,-119.8108607,100401,75728,79845,121.760302
CA,Fresno,93723,36.7715437,-119.9090389,96454,300000,68054,107.8285644
CA,Fresno,93722,36.7590347,-119.8712115,69094,53793,50023,303.5555965
CA,Kerman,93630,36.7082365,-120.1192112,45548,29538,56260,275.9559652
CA,Fresno,93705,36.7971891,-119.8544515,61762,58859,37473,186.6920309
CA,Fresno,93711,36.8300614,-119.8311865,99856,83707,74372,173.2573713
CA,Fresno,93720,36.8448123,-119.7744453,51513,43176,40207,856.0589766
CA,Fresno,93710,36.8301689,-119.7903034,42661,30873,31674,587.6576386
CA,Fresno,93726,36.786884,-119.7814652,60998,46592,46675,307.1930611
CA,Clovis,93611,36.8446768,-119.7018656,94931,89265,57837,182.886096
CA,Clovis,93619,36.8804748,-119.6918625,105422,300000,65384,34.66343961
CA,Sanger,93657,36.7700677,-119.5155966,77299,43682,72082,120.6298926
CA,Bakersfield,93312,35.3907396,-119.1188797,76076,68372,48584,588.0933555
CA,Big Creek,93605,37.2235798,-119.0008343,91840,300000,48267,37.53082611
CA,Tollhouse,93667,36.9057665,-119.3805297,107612,95137,70383,253.0204273
CA,Orange Cove,93646,36.6466582,-119.3274871,36480,22455,38995,589.7889491
CA,Reedley,93654,36.6045254,-119.4393739,82535,73293,57919,99.65692477
CA,Parlier,93648,36.5995049,-119.4974354,61962,300000,41359,134.9979199
CA,Selma,93662,36.5935943,-119.6260162,58925,300000,31751,215.5245163
CA,Kingsburg,93631,36.5460501,-119.5391568,124958,108583,77787,162.5222057
CA,Shafter,93263,35.4961858,-119.2738672,39209,31614,34188,1116.126388
CA,Raisin City,93652,36.580566,-119.9430164,46691,35472,39922,165.8618
CA,Five Points,93624,36.3151691,-120.0929313,29663,23824,25695,485.9184728
CA,Coalinga,93210,36.1419126,-120.3512512,95126,89163,55806,171.2546346
CA,Mendota,93640,36.804879,-120.398557,40404,36615,20349,222.3256107
CA,Firebaugh,93622,36.8586926,-120.5139877,59164,56349,45351,164.7550596
CA,Hamilton City,95951,39.7212958,-122.0413986,47707,33487,37030,384.0891046
CA,Eureka,95501,40.7846083,-124.1798708,85033,73345,55356,134.2604988
CA,Mcfarland,93250,35.6738272,-119.2425798,38045,31876,30117,1684.438255
CA,Arcata,95521,40.8875919,-124.0989799,40289,28788,34802,516.3468088
CA,Trinidad,95570,41.1893421,-124.0324312,59154,49556,47634,180.7579872
CA,Mckinleyville,95519,40.9375951,-124.11228,48106,45774,35048,600.8096735
CA,Fortuna,95540,40.6865049,-124.1567492,68994,59364,50520,520.7766505
CA,Bridgeville,95526,40.5020364,-123.7971626,50321,33497,52524,152.4941871
CA,Scotia,95565,40.4366309,-124.0525212,64765,47670,54003,275.4920048
CA,Hoopa,95546,41.0933707,-123.6734419,42756,25831,50343,397.6165364
CA,Oakland,94606,37.7408161,-122.1621741,69451,63541,51804,745.93188
CA,Holtville,92250,32.8156455,-115.3745809,41460,18600,48430,311.2593438
CA,Imperial,92251,32.8655904,-115.557135,82874,76449,40653,582.0904098
CA,El Centro,92243,32.7756534,-115.4937384,48768,36209,45607,340.1905719
CA,Calexico,92231,32.6773523,-115.4776599,70533,60898,59628,503.9800402
CA,Seeley,92273,32.9323193,-115.9218139,40304,23203,36262,63.79786308
CA,Bishop,93514,37.3448147,-118.2425035,91625,84997,51673,172.5822526
CA,Independence,93526,36.9449466,-117.9007638,64939,49379,48774,432.2503691
CA,California City,93505,35.1220493,-118.007949,57977,42618,46357,1052.79672
CA,Bakersfield,93308,35.4294346,-119.0170134,47383,35774,37755,500.4505569
CA,Bakersfield,93305,35.3976684,-118.9953155,61146,52669,41103,155.4273621
CA,Bakersfield,93306,35.4050159,-118.9631285,64345,59094,49723,269.8107728
CA,Tehachapi,93561,34.9750866,-118.5949931,79435,59562,61561,1122.776668
CA,Bakersfield,93309,35.3601532,-119.0495029,56318,42479,45251,672.8083025
CA,Bakersfield,93313,35.3070654,-119.0655635,54283,46767,42202,191.8242764
CA,Hanford,93232,36.3547616,-119.6700353,94000,88623,63042,1148.982165
CA,Wasco,93280,35.5738555,-119.3509151,47921,38561,37204,348.3259998
CA,Ridgecrest,93555,35.7285096,-117.7286899,37548,24519,37365,355.3875842
CA,Inyokern,93527,35.5741443,-117.8252583,125966,300000,61427,285.6454059
CA,Hanford,93230,36.2324904,-119.6239493,69956,53963,59129,510.2132065
CA,Rosamond,93560,34.8581565,-118.1560393,57877,65076,33164,204.2212632
CA,Arvin,93203,35.2236273,-118.83337,53026,38595,42781,356.1542416
CA,Lamont,93241,35.2692638,-118.9121193,39654,35419,30571,384.3853401
CA,Lemoore,93245,36.2769538,-119.769357,84148,74559,57437,320.8139193
CA,Lakeport,95453,39.0412302,-122.9626051,50565,42087,42791,1071.994167
CA,Corcoran,93212,36.1028669,-119.5738328,48378,31305,48265,162.9888425
CA,Avenal,93204,35.9068415,-120.0768232,0,0,0,0
CA,Clearlake Oaks,95423,39.081678,-122.575206,46508,28512,41103,307.5170444
CA,Clearlake,95422,38.9565553,-122.6403151,41732,27038,39758,339.4889898
CA,Kelseyville,95451,38.8709539,-122.7736029,61941,55303,46728,337.8478095
CA,Susanville,96130,40.4793843,-120.5970677,60707,59703,41137,186.1244894
CA,Janesville,96114,40.276377,-120.5441538,72742,56751,57194,152.4547601
CA,Tujunga,91042,34.2529724,-118.2907309,54587,33774,57058,653.3798221
CA,Sunland,91040,34.2633843,-118.3073883,87333,300000,59325,119.1929832
CA,Pacoima,91331,34.2731497,-118.39857,41633,36414,32712,477.0136353
CA,Lake View Terrace,91342,34.2912875,-118.3931176,45536,33087,39032,235.3617969
CA,Litchfield,96117,40.4420615,-120.3653805,78642,62733,63866,253.8166081
CA,Granada Hills,91344,34.2863224,-118.5070136,116540,300000,60870,123.5558927
CA,Northridge,91326,34.2864236,-118.5400017,149418,300000,62264,114.95329
CA,Mission Hills,91345,34.2593157,-118.4495333,84635,300000,45923,98.75875287
CA,Sun Valley,91352,34.2161873,-118.3453981,88535,76038,63715,567.0981626
CA,Northridge,91325,34.2539511,-118.5128425,80195,61041,64552,631.9959358
CA,Chatsworth,91311,34.2606831,-118.6024264,100529,90602,72354,157.8213185
CA,West Hills,91304,34.2269621,-118.6012202,51265,41995,36970,806.3344791
CA,Canoga Park,91306,34.222799,-118.5807188,97358,300000,61605,204.2192445
CA,Northridge,91324,34.2441108,-118.5382749,54102,44427,46815,720.1080882
CA,North Hills,91343,34.2429089,-118.478874,97155,85144,54813,163.5531377
CA,Berkeley,94707,37.8911093,-122.2813663,137482,133190,83451,519.5604104
CA,Panorama City,91402,34.2371667,-118.4458757,55225,42001,50746,533.8516075
CA,North Hollywood,91605,34.2114871,-118.3928771,37221,26032,32621,658.1793096
CA,North Hollywood,91606,34.192132,-118.365403,54091,41169,48898,610.7173858
CA,Van Nuys,91401,34.1774941,-118.4162038,70527,54369,56721,448.3497539
CA,North Hollywood,91601,34.1757824,-118.3833988,61317,40557,58940,374.7897833
CA,Sherman Oaks,91423,34.1631392,-118.4158172,99722,78022,73680,291.4530687
CA,Van Nuys,91405,34.2043745,-118.4301703,47449,37333,52037,806.7658462
CA,Van Nuys,91406,34.2102531,-118.4782103,51373,39263,49925,224.8278248
CA,Van Nuys,91411,34.1921963,-118.4576889,27295,22542,18868,297.6553553
CA,Downey,90242,34.3263984,-118.4796123,84852,76695,54083,734.1570001
CA,Reseda,91335,34.2145917,-118.5316957,66388,59693,51488,529.5111635
CA,Canoga Park,91303,34.2026924,-118.5855271,93502,88567,55234,118.3931296
CA,West Hills,91307,34.1886366,-118.6174552,96502,89857,64295,210.0517036
CA,Woodland Hills,91367,34.1661153,-118.6402345,102316,72104,81025,334.0465907
CA,Woodland Hills,91364,34.1634518,-118.5976927,74477,44205,68752,250.1217404
CA,Encino,91316,34.1754113,-118.5117181,99682,300000,61115,142.2575857
CA,Encino,91436,34.1365758,-118.5094499,179773,183484,65778,36.72691808
CA,Sherman Oaks,91403,34.1519021,-118.4426826,80261,63169,55187,411.277445
CA,North Hollywood,91602,34.152183,-118.3866139,108180,76209,89557,247.6235256
CA,Studio City,91604,34.1476412,-118.40678,81124,300000,63247,239.2565661
CA,Los Angeles,90041,34.145267,-118.2043861,88527,59408,72801,206.0203157
CA,Los Angeles,90042,34.1199723,-118.1892861,56625,49009,36976,270.1563368
CA,Los Angeles,90017,34.1001272,-118.2316884,62747,58114,45685,127.324813
CA,Los Angeles,90065,34.1284623,-118.2299818,104280,300000,76321,108.1952538
CA,Los Angeles,90027,34.1124175,-118.2723964,71281,64881,51608,253.5839833
CA,Los Angeles,90028,34.1112674,-118.3093146,123433,83180,91067,173.4884437
CA,Los Angeles,90068,34.1319418,-118.3345237,122950,98295,80867,138.6516426
CA,Los Angeles,90046,34.1025152,-118.3477123,71807,46897,67637,859.2618
CA,Los Angeles,90029,34.0929287,-118.304794,41109,28797,35748,736.2486463
CA,Los Angeles,90038,34.0852963,-118.3277048,58909,47458,47588,266.0555146
CA,Los Angeles,90004,34.079869,-118.3068568,54342,37893,50701,526.4876806
CA,Los Angeles,90026,34.0916923,-118.2740531,109647,93139,74336,200.1501162
CA,Los Angeles,90031,34.0700703,-118.1996896,44460,27902,38095,455.4511807
CA,Los Angeles,90032,34.0948043,-118.1743332,57923,38818,59471,160.122886
CA,Los Angeles,90033,34.059079,-118.1964766,44291,300000,49724,126.0326766
CA,Los Angeles,90063,34.0449856,-118.1955756,56085,52980,32873,153.6906332
CA,Los Angeles,90015,34.0175004,-118.1974975,44018,36291,32404,360.4556459
CA,Los Angeles,90012,34.0592851,-118.2395097,29299,15956,32360,767.4663119
CA,Los Angeles,90057,34.0637659,-118.2691298,34427,22191,31842,499.3279917
CA,Los Angeles,90005,34.0529626,-118.2819584,33119,25809,27321,301.4562784
CA,Los Angeles,90010,34.0653405,-118.3184531,84137,300000,68849,162.7274301
CA,Los Angeles,90019,34.0494541,-118.3215149,64429,42865,64289,438.8556773
CA,Los Angeles,90006,34.0508743,-118.2978915,38042,28469,28015,469.2585214
CA,Los Angeles,90036,34.0748535,-118.348502,91974,300000,88846,214.6962832
CA,Beverly Hills,90211,34.0729596,-118.3800926,83580,60080,67837,369.112048
CA,Los Angeles,90016,34.0427467,-118.3548171,36483,25753,30278,433.9837974
CA,Los Angeles,90056,34.0326941,-118.3230172,53101,38801,48642,577.7478487
CA,Los Angeles,90007,34.0435736,-118.2960214,43755,38672,29764,511.4883872
CA,Los Angeles,90018,34.0384431,-118.3090474,59581,37415,61162,229.8855171
CA,Los Angeles,90011,34.0218419,-118.2570623,37079,25700,36339,296.0595691
CA,Los Angeles,90058,33.9992469,-118.2432565,27709,21613,21297,131.4925498
CA,Los Angeles,90062,34.0145548,-118.3129995,45723,38509,30133,340.9240346
CA,Los Angeles,90037,34.0073136,-118.2893576,27902,24958,24136,307.4129404
CA,Los Angeles,90044,33.9920924,-118.2979984,40317,27101,39650,538.9884766
CA,Los Angeles,90008,34.0120868,-118.3214867,80654,70607,58446,118.6277399
CA,Los Angeles,90043,33.9872213,-118.3276852,50194,31219,54157,160.3622169
CA,Inglewood,90305,33.963628,-118.3111989,49347,34421,43056,364.6818093
CA,Los Angeles,90001,33.9729857,-118.2628927,36769,30036,30034,254.6590909
CA,Los Angeles,90003,33.966092,-118.2752631,37936,34678,22619,415.5881723
CA,Los Angeles,90002,33.9470153,-118.2593919,26815,18303,26115,293.8554879
CA,Los Angeles,90059,33.932376,-118.2502423,23353,12486,22296,264.8449744
CA,Los Angeles,90077,34.108023,-118.4569642,166585,300000,100375,69.33085864
CA,Los Angeles,90049,34.0918093,-118.508627,189728,300000,84217,73.62565483
CA,Pacific Palisades,90272,34.040805,-118.5419865,130804,118247,89940,530.7011523
CA,Los Angeles,90024,34.0668275,-118.4364091,103013,91139,88538,319.0670069
CA,Los Angeles,90025,34.0525736,-118.4245499,112470,97041,75401,411.8632666
CA,Los Angeles,90035,34.0387217,-118.4441579,86354,77492,65205,487.8082102
CA,Los Angeles,90034,34.043325,-118.404305,201716,300000,73283,36.96281923
CA,Los Angeles,90064,34.0444598,-118.4122005,165946,300000,84616,78.69525568
CA,Los Angeles,90066,34.0166822,-118.4382414,139846,116703,80004,55.76094737
CA,Venice,90291,34.0034847,-118.4597995,127023,117987,84722,135.6912281
CA,Marina Del Rey,90292,33.9832035,-118.4661393,129091,94781,80712,156.4179218
CA,Berkeley,94703,37.8573281,-122.2842016,77898,64599,63168,856.4249516
CA,Los Angeles,90230,33.9979789,-118.4112469,59922,300000,45972,308.993144
CA,Los Angeles,90045,33.9668881,-118.4095017,113745,107969,72873,135.6537328
CA,Playa Del Rey,90293,33.9558339,-118.4365003,86856,71650,63594,590.0872786
CA,Gardena,90247,33.8771395,-118.286709,50930,35604,49082,126.9287896
CA,Torrance,90501,33.8308864,-118.30513,71178,63008,50150,309.5136787
CA,Harbor City,90710,33.7926172,-118.3043149,64107,48109,47672,486.0852868
CA,Wilmington,90744,33.7957797,-118.2475763,48199,31470,44589,112.227715
CA,San Pedro,90731,33.7410279,-118.2837798,68164,55848,62112,290.2474582
CA,San Pedro,90732,33.7208388,-118.3228117,125147,300000,65068,68.65958682
CA,La Crescenta,91214,34.2283768,-118.2386852,103793,86533,66206,208.2470953
CA,Glendale,91208,34.2083519,-118.2370026,99322,300000,55854,103.2610909
CA,Glendale,91202,34.1812932,-118.2602776,125819,113952,88892,415.9736326
CA,Glendale,91206,34.1622943,-118.2471275,71613,300000,51090,480.915362
CA,Glendale,91201,34.1752478,-118.2869319,78126,70374,55194,180.4879518
CA,Glendale,91203,34.1492141,-118.2597025,65155,34908,67101,503.8524924
CA,Glendale,91205,34.1488475,-118.2387735,56184,39268,51757,1074.435554
CA,Glendale,91204,34.1446832,-118.2632444,86436,55120,74657,528.8485473
CA,Burbank,91501,34.1865849,-118.2959084,95896,76779,73577,273.3787385
CA,Burbank,91504,34.1946547,-118.3394509,71316,63799,48326,142.2900099
CA,Burbank,91502,34.1811419,-118.3067629,47878,35793,34513,791.2449452
CA,Pasadena,91101,34.1813842,-118.3309896,67988,43316,55087,259.259808
CA,Burbank,91505,34.1856903,-118.3546268,93727,300000,56108,150.5556792
CA,Burbank,91506,34.1617644,-118.3200887,92215,300000,73321,204.4921401
CA,San Fernando,91340,34.2897466,-118.4345092,69910,66670,43702,129.9892323
CA,Glendora,91741,34.1611292,-117.8641751,135047,300000,79740,223.7183368
CA,Glendora,91740,34.1234558,-117.8541745,69703,300000,66021,185.8603455
CA,Pomona,91767,34.1001078,-117.741743,72283,67063,52393,521.2093942
CA,Claremont,91711,34.087518,-117.7249199,80489,75939,57703,317.6836924
CA,Pomona,91768,34.0617068,-117.7658059,39659,30306,33027,398.7239095
CA,Pomona,91766,34.0483607,-117.7322415,50018,47010,29533,402.3175326
CA,Baldwin Park,91706,34.0707544,-117.9850286,52026,42556,42691,401.3821716
CA,West Covina,91790,34.0764659,-117.9439945,72493,300000,40579,251.1200353
CA,Covina,91722,34.0921972,-117.9121014,72862,60012,50476,366.6172515
CA,La Puente,91746,34.0595763,-117.979529,72821,66800,38164,261.2209007
CA,La Puente,91744,34.0335496,-117.9597817,86036,85900,54523,131.8255833
CA,West Covina,91791,34.0455304,-117.9154705,100851,104414,51221,291.9091048
CA,Rowland Heights,91748,33.994422,-117.8795586,70175,56154,50688,352.4549561
CA,Hacienda Heights,91745,34.0113976,-117.9679362,65473,57321,46016,462.1141461
CA,Duarte,91010,34.1722232,-117.9422558,105358,108251,46966,83.12379691
CA,Tarzana,91356,34.1767231,-118.5383656,53763,44404,44441,1231.74086
CA,Sierra Madre,91024,34.162053,-118.052919,107162,90293,76950,327.085362
CA,Arcadia,91007,34.1422654,-118.0608911,75544,52547,62299,571.5771725
CA,Temple City,91780,34.0981939,-118.0327899,35100,19836,41850,385.7868668
CA,El Monte,91731,34.0865238,-118.0462778,76522,55648,57783,265.6885096
CA,El Monte,91732,34.0966686,-118.0058397,68133,57351,58636,342.9464342
CA,Rosemead,91770,34.0786952,-118.0599559,84718,66462,69792,97.76274673
CA,South El Monte,91733,34.0468938,-118.0588991,46816,33670,34545,320.892286
CA,Altadena,91001,34.2022974,-118.1374923,100351,300000,58212,186.819295
CA,La Canada,91011,34.2062406,-118.1950104,176514,300000,68029,35.49416982
CA,Pasadena,91103,34.174165,-118.1372082,55463,44804,46595,270.2853004
CA,Pasadena,91104,34.1633406,-118.1483611,47208,300000,59419,121.0323886
CA,Pasadena,91106,34.1549625,-118.1270033,50706,35231,41165,564.2752632
CA,San Marino,91108,34.1202462,-118.1222337,178029,204164,78730,33.86050124
CA,San Gabriel,91775,34.1089102,-118.0972871,127983,300000,65760,78.15928548
CA,Alhambra,91801,34.1039997,-118.1321698,121801,104023,86965,130.9240878
CA,South Pasadena,91030,34.1193401,-118.1551292,74402,55405,58793,754.53632
CA,Alhambra,91803,34.0820627,-118.1526495,78622,58614,56089,110.1614351
CA,San Gabriel,91776,34.099157,-118.1069461,57232,47607,42083,462.9175987
CA,Monterey Park,91754,34.0488369,-118.1482676,83332,60854,66733,320.5159267
CA,Monterey Park,91755,34.0589573,-118.1124273,44073,27978,50932,297.8199213
CA,Whittier,90605,33.9613945,-117.9940889,153156,300000,78923,86.39403496
CA,Pico Rivera,90660,34.0139543,-118.0739967,75490,73063,43795,245.5867811
CA,Whittier,90601,33.998845,-118.0628302,88766,78658,62006,436.2382288
CA,Whittier,90602,33.9760214,-118.008555,70285,48157,55732,460.3211243
CA,Whittier,90606,33.9775294,-118.0729448,73814,58849,55841,173.8921218
CA,Santa Fe Springs,90670,33.9548068,-118.0716366,76128,60661,43733,188.9230546
CA,Whittier,90604,33.9324918,-118.0266537,68760,62108,59694,117.7944077
CA,La Mirada,90638,33.9113984,-117.9989996,116058,96936,79934,312.2796246
CA,Los Angeles,90039,34.1207814,-118.2647639,87637,300000,54816,623.2010415
CA,Montebello,90640,34.020019,-118.1126395,64591,49628,52342,244.1907105
CA,Los Angeles,90022,34.0278115,-118.1479458,47462,44387,24598,238.6236747
CA,Los Angeles,90023,34.016901,-118.182724,31064,19354,30982,258.9943019
CA,Huntington Park,90255,33.9832062,-118.2208725,35969,27107,25779,498.327462
CA,Maywood,90270,33.9927923,-118.2024051,28800,21049,26824,282.1910275
CA,Bell,90201,33.9771928,-118.1965167,52302,56738,34829,187.2896994
CA,Alameda,94501,37.7778323,-122.2835979,57071,43007,50318,1165.270709
CA,Lynwood,90262,33.931052,-118.1901733,42656,41431,27962,218.0611991
CA,Compton,90222,33.9243583,-118.2341162,38523,28460,36637,605.8148147
CA,Los Angeles,90061,33.9194635,-118.2717325,51540,44268,33811,185.5914437
CA,Compton,90227,33.8996115,-118.2262997,51253,44426,39675,492.3815025
CA,Carson,90746,33.881033,-118.2539533,54426,48895,41206,239.0542538
CA,Carson,90747,33.8656664,-118.25076,77615,66090,53106,418.3460165
CA,Carson,90745,33.8135657,-118.2696681,73556,57020,58825,125.023021
CA,Long Beach,90810,33.830434,-118.2159632,92074,94556,45388,68.69358391
CA,Norwalk,90650,33.9278762,-118.0841626,79170,300000,46580,196.6219953
CA,Downey,90240,33.9502684,-118.1063383,125282,300000,78348,95.62709943
CA,Downey,90241,33.95127,-118.1433556,63954,53192,41428,268.8561839
CA,Bellflower,90706,33.9049648,-118.1205611,86014,300000,51952,104.4947751
CA,Cerritos,90703,33.8767524,-118.0551677,106789,96089,69002,282.3141368
CA,Artesia,90701,33.8693945,-118.0806903,75344,61821,61215,290.8858595
CA,Hawaiian Gardens,90716,33.8200771,-118.0728449,115804,96094,80111,177.513532
CA,Long Beach,90805,33.8794113,-118.1785185,63240,52217,48936,174.8198134
CA,Lakewood,90713,33.8532314,-118.1210795,89235,75940,67928,128.0257524
CA,Long Beach,90808,33.8395918,-118.1336246,112915,300000,81184,135.7253428
CA,Lakewood,90712,33.8351031,-118.1600342,109386,99591,61244,118.3904776
CA,Long Beach,90807,33.8481676,-118.1705772,75146,77305,43718,222.1158557
CA,Long Beach,90813,33.793484,-118.1915444,37187,24828,35563,411.3558733
CA,Long Beach,90806,33.8006191,-118.1853182,52087,37827,44889,494.1835594
CA,Signal Hill,90755,33.8016982,-118.1691428,48159,36506,43395,430.2797774
CA,Long Beach,90815,33.7994363,-118.118082,77323,63316,42598,128.1568917
CA,Long Beach,90804,33.7861934,-118.1534873,56802,39139,45798,565.8833225
CA,Long Beach,90802,33.778962,-118.197207,41231,28386,39205,566.6471113
CA,Long Beach,90814,33.7715757,-118.1642818,46423,47193,41724,217.2792938
CA,Long Beach,90803,33.7556821,-118.1387992,109531,104705,76391,195.7197401
CA,Avalon,90704,33.3421607,-118.3305291,76075,72859,47857,106.4267771
CA,Inglewood,90303,33.9280513,-118.3307284,91096,80697,58117,137.2553364
CA,Inglewood,90302,33.9720411,-118.3522568,34386,32606,21485,367.7286824
CA,Inglewood,90301,33.9565607,-118.3475932,38939,32736,29338,688.348755
CA,Lennox,90304,33.9400822,-118.3635824,48218,36108,40359,490.5824953
CA,Hawthorne,90250,33.9204031,-118.3581593,49456,40862,37525,453.3069435
CA,Gardena,90249,33.9112721,-118.3195843,55800,52730,34950,321.0789043
CA,Gardena,90248,33.8701465,-118.3023094,87607,300000,57683,103.726454
CA,Torrance,90504,33.8829956,-118.3393815,91949,300000,63391,253.5557357
CA,Lawndale,90260,33.8985392,-118.3480963,55420,45831,36998,241.2249701
CA,Manhattan Beach,90266,33.8984626,-118.4050812,164396,206024,92189,112.9917153
CA,Redondo Beach,90278,33.8873629,-118.3699718,109016,300000,58288,99.02806248
CA,Torrance,90503,33.8530265,-118.3702822,114126,300000,62960,71.4621798
CA,Torrance,90505,33.8209956,-118.367527,125786,300000,66719,127.1229427
CA,Palos Verdes Estates,90274,33.8001638,-118.3869835,150223,157006,81326,58.49228472
CA,Rancho Palos Verdes,90275,33.7671014,-118.3748916,122003,105522,80507,414.4358662
CA,Los Angeles,90048,34.0812987,-118.3811478,78427,62610,66805,492.2678226
CA,Beverly Hills,90210,34.0892642,-118.4021007,167779,208338,93754,100.2568851
CA,Beverly Hills,90212,34.0620828,-118.3944002,96430,89224,68380,390.4948192
CA,Santa Monica,90403,34.0412036,-118.4943488,157088,156861,84443,87.75912313
CA,Santa Monica,90405,34.0188907,-118.4789709,70151,46977,59443,287.924493
CA,Calabasas,91302,34.1150626,-118.685427,151185,300000,80376,73.16126517
CA,Westlake Village,91361,34.1448378,-118.8170419,110295,97315,84170,315.044069
CA,Agoura,91301,34.1211089,-118.7391728,140704,300000,58244,78.62404412
CA,Topanga,90290,34.0516505,-118.6049503,136693,300000,73979,149.0531312
CA,Lancaster,93535,34.7083865,-117.956249,53182,38578,53018,242.949616
CA,Lancaster,93534,34.6819687,-118.14081,65709,56932,51199,261.8161855
CA,Lancaster,93536,34.6966423,-118.1748108,68162,57343,43746,131.0249124
CA,Palmdale,93551,34.615092,-118.1350954,76484,62035,54730,446.0124315
CA,Palmdale,93550,34.5834907,-118.1256195,45383,35898,37879,330.9539579
CA,Canyon Country,91351,34.4620693,-118.395844,88448,300000,44857,193.3846532
CA,Agua Dulce,91390,34.5455872,-118.4200954,91975,58769,86857,42.86279905
CA,Saugus,91350,34.4474408,-118.5295759,84492,300000,48574,305.2533039
CA,Castro Valley,94546,37.7060949,-122.0822257,110268,300000,62532,454.6681035
CA,Canyon Country,91387,34.4180484,-118.4333787,79203,73376,46596,380.7722914
CA,Valencia,91355,34.4524038,-118.5384531,110430,100166,62717,171.7180824
CA,Newhall,91321,34.3715616,-118.5513235,120161,300000,65393,84.26038108
CA,North Fork,93643,37.3965946,-119.3767852,48669,25394,59364,232.5870814
CA,Oakhurst,93644,37.3197594,-119.6159177,80540,300000,46079,111.3272112
CA,Madera,93638,36.962996,-119.9602082,78925,69478,55453,322.5503064
CA,Novato,94949,38.0792991,-122.5643083,105244,103640,63777,233.9198494
CA,San Rafael,94901,37.9815305,-122.5305318,71791,62928,58934,276.9137025
CA,San Anselmo,94960,37.9762769,-122.5941051,115908,95545,77809,300.5822706
CA,Larkspur,94939,37.9456796,-122.5282641,82393,60197,68850,417.7845711
CA,Corte Madera,94925,37.9240154,-122.5231563,153399,300000,79413,133.0563717
CA,Tiburon,94920,37.8713791,-122.4672873,158404,300000,88766,93.5272525
CA,Mill Valley,94941,37.899975,-122.5225708,103111,76513,82645,460.7739177
CA,Sausalito,94965,37.856415,-122.478445,119885,122444,73952,351.7449799
CA,Catheys Valley,95306,37.3724477,-120.0838974,69566,54789,64330,327.8711329
CA,Yosemite,95389,37.6979738,-119.5740176,80304,67869,57980,213.6234624
CA,Fort Bragg,95437,39.455171,-123.638408,63791,300000,53266,183.5627091
CA,Willits,95490,39.4223312,-123.3671818,32119,30407,21041,399.9583748
CA,Ukiah,95482,39.2595876,-123.3809556,67929,300000,47039,80.43084276
CA,Point Arena,95468,38.8846355,-123.5511675,52057,39048,48211,379.0202795
CA,Merced,95341,37.4002299,-120.6908186,45169,300000,30657,169.5948836
CA,Hilmar,95324,37.3998708,-120.8953613,90493,300000,58588,162.2240635
CA,Atwater,95301,37.3574501,-120.6497474,50484,43488,37979,596.6779177
CA,Merced,95344,37.2876583,-120.445312,41004,32873,32392,857.5958497
CA,Los Banos,93635,37.049609,-120.8635648,54495,42798,48414,361.622135
CA,Dos Palos,93620,36.9746245,-120.6220705,59484,45240,42567,497.2150974
CA,Canby,96015,41.5108055,-121.2486404,40613,33481,31724,300.1185472
CA,Mammoth Lakes,93546,37.6397682,-118.9849293,80754,300000,53004,98.56246351
CA,Salinas,93906,36.7132772,-121.6495279,80377,300000,50793,266.3835387
CA,Salinas,93905,36.6878097,-121.609157,37606,30398,29741,265.4570808
CA,Salinas,93901,36.6701186,-121.6776094,86755,79351,56555,255.7863522
CA,Castroville,95012,36.764838,-121.7533738,50156,40931,35889,258.5900892
CA,Salinas,93908,36.5436798,-121.6316313,132555,110955,80992,251.2491685
CA,Carmel Valley,93924,36.3913637,-121.6806215,73412,78216,34256,208.1509113
CA,Greenfield,93927,36.3177202,-121.244738,48881,46011,26904,218.1595808
CA,Carmel,93922,36.4997312,-121.871267,103464,81869,80585,446.2740522
CA,Pacific Grove,93950,36.5852187,-121.9452821,114133,111009,74144,121.3893688
CA,Monterey,93940,36.6021019,-121.8947338,54390,38489,50629,280.4179268
CA,Seaside,93955,36.6034308,-121.8319795,35070,20035,37384,330.4907662
CA,Marina,93933,36.7093536,-121.771688,54805,45581,41072,451.1168965
CA,Napa,94559,38.2947649,-122.2877733,43320,45962,36548,298.1879793
CA,Napa,94558,38.3170915,-122.2915765,84259,300000,66267,157.1926463
CA,Vallejo,94589,38.1608327,-122.2596823,109285,300000,65821,269.3833287
CA,Yountville,94599,38.3955265,-122.3669355,100464,68313,80091,322.2855914
CA,Angwin,94508,38.5549366,-122.4312603,79252,66968,49031,183.9552592
CA,Calistoga,94515,38.5814083,-122.5826961,88175,300000,74011,156.2606628
CA,Grass Valley,95949,39.0603644,-121.0424118,75233,300000,49818,108.6954497
CA,San Leandro,94579,37.7167162,-122.1661481,72350,60725,47355,818.333515
CA,Penn Valley,95946,39.2091585,-121.2138243,77092,54433,61597,464.5515954
CA,Grass Valley,95945,39.2116634,-121.0816502,50223,38956,41570,317.6255973
CA,Alta,95701,39.2295298,-120.8825536,62423,46989,51315,470.5875533
CA,Nevada City,95959,39.2508975,-121.045279,84697,73012,57239,472.9408907
CA,La Habra,90631,33.9427646,-117.963138,80902,72539,45409,191.3212402
CA,La Habra,90633,33.9209014,-117.9511671,76343,77420,39260,281.0365906
CA,Oakland,94607,37.8063521,-122.2963073,55769,39174,53094,590.747398
CA,Brea,92821,33.9153582,-117.9082621,69752,64980,50794,237.2550647
CA,Fullerton,92835,33.9022276,-117.9223002,128201,300000,75641,170.3220269
CA,Fullerton,92833,33.8630156,-117.9720501,41985,300000,25208,396.9257123
CA,Fullerton,92832,33.8732653,-117.9360784,94853,92860,52122,129.0907432
CA,Fullerton,92831,33.8715955,-117.9057059,79796,300000,54844,108.5952015
CA,Placentia,92870,33.9025381,-117.8612771,118643,300000,69504,134.7889081
CA,Placentia,92780,33.8654909,-117.8706075,46109,28108,54427,283.9541093
CA,Yorba Linda,92887,33.8831822,-117.7056802,122484,300000,61753,132.0532544
CA,Anaheim,92807,33.8523274,-117.8076536,105938,300000,67176,126.1570034
CA,Orange,92869,33.7979555,-117.8074249,112291,99655,69506,186.2186039
CA,Anaheim,92808,33.8549585,-117.7543976,165411,300000,68497,73.52589046
CA,Trabuco Canyon,92679,33.7524903,-117.6124151,93837,300000,66550,216.1918096
CA,Mission Viejo,92691,33.6091503,-117.6853284,105999,102257,65245,213.4502644
CA,San Clemente,92673,33.510035,-117.5565845,154769,164449,85245,671.8853414
CA,Rancho Santa Margarita,92688,33.6394475,-117.629962,181956,200345,74052,175.4137023
CA,Mission Viejo,92692,33.5941166,-117.6450407,167360,300000,67203,42.49347087
CA,San Clemente,92672,33.4320693,-117.6217862,57821,45944,45981,621.0049201
CA,Capistrano Beach,92624,33.4516513,-117.6512801,94997,76631,66374,351.7133629
CA,Laguna Niguel,92677,33.5378721,-117.679732,93402,77064,75089,244.7876408
CA,Aliso Viejo,92656,33.5707126,-117.7106408,72942,68064,51554,266.2851703
CA,Lake Forest,92630,33.649152,-117.7046344,79054,300000,74215,235.1621105
CA,Irvine,92620,33.6920021,-117.7546973,68649,66137,55052,298.5480322
CA,Irvine,92604,33.6847725,-117.7990448,67308,17230,79359,349.1139904
CA,Irvine,92614,33.6693319,-117.7987237,116522,300000,54193,170.8168008
CA,Irvine,92618,33.672529,-117.7750233,159907,300000,59467,115.1842822
CA,Irvine,92606,33.6849393,-117.8221596,69568,57940,53159,218.688673
CA,Laguna Beach,92651,33.5427708,-117.7839464,102205,96360,66392,130.491137
CA,Irvine,92612,33.662224,-117.8144114,43156,27630,36902,341.5150873
CA,Laguna Hills,92653,33.6166767,-117.7248835,55115,45519,45597,435.6119566
CA,Irvine,92603,33.6401283,-117.8123266,160443,300000,86666,56.5285254
CA,Costa Mesa,92626,33.5950883,-117.829038,168957,300000,79604,134.4251905
CA,Santa Ana,92704,33.6937428,-117.9036273,121173,113437,80521,293.3048777
CA,Santa Ana,92707,33.7015157,-117.8725713,86494,73058,61340,320.8844842
CA,Santa Ana,92701,33.7481442,-117.8492851,47897,300000,35543,151.364133
CA,Santa Ana,92703,33.7435528,-117.889227,76750,59646,60092,163.2578083
CA,Santa Ana,92706,33.755664,-117.8797292,55783,40846,46986,248.7219854
CA,Santa Ana,92705,33.7789827,-117.7854309,172734,300000,78612,98.52312168
CA,Orange,92866,33.7932453,-117.8365359,70957,60350,50530,240.0522221
CA,Orange,92867,33.807971,-117.8287446,112819,111246,60639,117.4853835
CA,Orange,92868,33.7812601,-117.8679465,64107,300000,51885,185.69269
CA,Garden Grove,92840,33.7825729,-117.892793,0,0,0,0
CA,Orange,92865,33.8374004,-117.8540526,92528,86223,59096,115.8261002
CA,Anaheim,92806,33.829141,-117.8794788,97024,92986,58129,207.5518814
CA,Anaheim,92805,33.8506272,-117.8977733,77785,300000,46739,218.7902337
CA,Anaheim,92801,33.8507453,-117.933024,55521,47315,38922,294.8583218
CA,Anaheim,92804,33.8247012,-117.9977753,68606,300000,49598,341.8563205
CA,Anaheim,92802,33.7975374,-117.9020092,46049,38814,31521,517.4767982
CA,Stanton,90680,33.8101182,-117.9975952,70632,47046,59931,530.8125863
CA,Garden Grove,92845,33.7886489,-118.0049621,76942,300000,50579,328.5168039
CA,Garden Grove,92841,33.7958279,-117.9631284,75235,67012,60942,210.2232561
CA,Garden Grove,92843,33.774306,-117.9263206,53832,36354,48968,345.9817147
CA,Garden Grove,92844,33.7711112,-117.9772251,66778,55347,62206,405.0082612
CA,Westminster,92683,33.7377201,-117.9503802,54332,43211,45156,394.0231711
CA,Huntington Beach,92646,33.6833875,-117.9605418,50346,39799,38323,295.72215
CA,Fountain Valley,92708,33.7239938,-117.9248182,79520,64245,58740,363.5137501
CA,Huntington Beach,92647,33.7190957,-118.0153179,65269,65037,43703,352.2759145
CA,Huntington Beach,92649,33.7096735,-118.0546077,120250,108609,72614,366.5065482
CA,Los Alamitos,90720,33.7701027,-118.0833104,60849,43461,49372,425.6203312
CA,Seal Beach,90740,33.7385342,-118.1055682,86246,65316,68537,261.0860609
CA,Midway City,92655,33.7410637,-117.9853677,74240,59181,56407,452.4450924
